STOP_NAME,longitude,latitude
134-Merribell Ave/Nicholson St (Coburg),144.97773391203575,-37.74434586492023
44-Deepdene Park/Whitehorse Rd (Balwyn),145.06867708655787,-37.81136186490553
45-Hardwicke St/Whitehorse Rd (Balwyn),145.0717910869284,-37.81173689524114
46-Balwyn Cinema/Whitehorse Rd (Balwyn),145.0759357654567,-37.81222883598729
47-Balwyn Rd/Whitehorse Rd (Balwyn),145.08152980324178,-37.81290581700616
48-Balwyn Shopping Centre/Whitehorse Rd (Balwyn),145.08379384226643,-37.81318589742294
49-Northcote Ave/Whitehorse Rd (Balwyn),145.08796192881778,-37.81367684779472
51-Narrak Rd/Whitehorse Rd (Mont Albert),145.09517598691704,-37.814550838014966
134-Orrong Rd/Toorak Rd (Toorak),145.0140539388447,-37.841741806362904
135-Woorigoleen Rd/Toorak Rd (Toorak),145.01758877803425,-37.84215283792306
136-Irving Rd/Toorak Rd (Toorak),145.02009185761924,-37.84244785902839
137-Kooyong Rd/Toorak Rd (Toorak),145.02307085733221,-37.84283081035521
138-Moonga Rd/Toorak Rd (Toorak),145.02625397492187,-37.84321781120693
139-Glenbervie Rd/Toorak Rd (Toorak),145.02982300758507,-37.84360184109596
112-Lygon St/Elgin St (Carlton),144.9671650225355,-37.79709981913103
113-Lytton St/Lygon St (Carlton),144.96803082358974,-37.79411379947282
114-Princes St/Lygon St (Carlton North),144.96827490391874,-37.79267586954958
115-Melbourne Cemetery/Lygon St (Carlton North),144.9688030246424,-37.78956681963369
116-Fenwick St/Lygon St (Carlton North),144.96919182518155,-37.78735686962483
117-Richardson St/Lygon St (Carlton North),144.96973794688685,-37.78402281918234
118-Pigdon St/Lygon St (Carlton North),144.9700799493163,-37.78191087837822
26-Alfred Hospital/Commercial Rd (South Yarra),144.98223104223229,-37.845264850719765
27-Punt Rd/Commercial Rd (South Yarra),144.9848691251104,-37.84561684149318
28-Braille Library/Commercial Rd (South Yarra),144.987419007554,-37.84588585216821
29-Porter St/Commercial Rd (South Yarra),144.9905888098515,-37.84630084294194
30-Prahran Market/Commercial Rd (South Yarra),144.9922768507662,-37.84652782331598
31-Chapel St/Commercial Rd (South Yarra),144.9940210515517,-37.846746883675294
32-Surrey Rd/Malvern Rd (South Yarra),144.99781292406536,-37.84727986423819
33-Francis St/Malvern Rd (South Yarra),145.0004398371686,-37.847639864607196
34-Williams Rd/Malvern Rd (South Yarra),145.00305595065348,-37.847990864992376
35-Mathoura Rd/Malvern Rd (Toorak),145.00669086216527,-37.84846687555585
36-A'Beckett St/Malvern Rd (Toorak),145.0099978149643,-37.84890985609626
37-Orrong Rd/Malvern Rd (Toorak),145.01208185453262,-37.849179856760806
38-Clendon Rd/Malvern Rd (Toorak),145.0153657738721,-37.84960483776878
39-Irving Rd/Malvern Rd (Toorak),145.01868497319214,-37.85003881873574
40-Kooyong Rd/Malvern Rd (Toorak),145.02131189263935,-37.8503898194627
41-Albany Rd/Malvern Rd (Toorak),145.02396185206948,-37.850749820160885
42-Lauriston Girls School/Malvern Rd (Toorak),145.0261470504361,-37.85103881036717
43-Glenferrie Rd/Malvern Rd (Toorak),145.02987304644904,-37.85153381021319
44-Plant St/Malvern Rd (Malvern),145.03250104421647,-37.851883820144124
45-Elizabeth St/Malvern Rd (Malvern),145.03530976234512,-37.85224589010763
46-Meredith St/Malvern Rd (Malvern),145.03923988066126,-37.8527708601176
47-Tooronga Rd/Malvern Rd (Malvern),145.04199280207135,-37.85311484036203
48-Edgar St/Malvern Rd (Malvern),145.04556076435662,-37.85354288073956
49-Kenilworth Gr/Malvern Rd (Malvern),145.0483259256071,-37.853886860992944
50-Burke Rd/Malvern Rd (Malvern),145.0514968064457,-37.85430887123632
51-Gardiner Railway Station/Burke Rd (Hawthorn East),145.05268300757308,-37.852840881668314
52-Harris Ave/Burke Rd (Hawthorn East),145.05304804992724,-37.849764862400974
53-Faircroft Ave/Burke Rd (Hawthorn East),145.05339797165828,-37.84815782283233
54-Toorak Rd/Burke Rd (Glen Iris),145.05388001464692,-37.84578686349692
55-Middle Rd/Burke Rd (Hawthorn East),145.0542508167795,-37.8437828339599
56-Anderson Rd/Burke Rd (Hawthorn East),145.05463205819754,-37.84184288433246
57-Pine Ave/Burke Rd (Hawthorn East),145.05494705908788,-37.84024385463111
58-Leura Gr/Burke Rd (Hawthorn East),145.05534197915875,-37.83815081482768
59-Pleasant Rd/Burke Rd (Hawthorn East),145.05583481905003,-37.83540185503127
60-Campbell Rd/Burke Rd (Hawthorn East),145.05616385893063,-37.833703825135906
61-Riversdale Rd/Burke Rd (Hawthorn East),145.05657209876694,-37.831556875256815
62-Camberwell Shopping Centre/755 Burke Rd (Hawthorn East),145.0568240986602,-37.830190855328595
63-Prospect Hill Rd/Burke Rd (Hawthorn East),145.05722801604438,-37.82820581529878
65-Victoria Rd/Burke Rd (Camberwell),145.05831880971132,-37.823420875327535
64-Camberwell Station/Burke Rd (Hawthorn East),145.0576369731145,-37.826040865304805
65-Victoria Rd/Burke Rd (Hawthorn East),145.05806609003605,-37.823569825374584
66-Rathmines Rd/Burke Rd (Hawthorn East),145.05847288758508,-37.82146787546786
67-Camberwell Girls Grammar/Burke Rd (Hawthorn East),145.05906004452066,-37.81857581566282
68-Mont Albert Rd/Burke Rd (Kew),145.0595478420836,-37.81597886591196
69-Sackville St/Burke Rd (Kew),145.05988084076216,-37.81411883579316
36-St Kilda Primary School/Brighton Rd (Balaclava),144.98842087329172,-37.870045816248336
37-Chapel St/Brighton Rd (Balaclava),144.98949979542428,-37.87175788670982
38-Brunning St/Brighton Rd (Balaclava),144.9901308770454,-37.872786857033525
39-Glen Eira Rd/Brighton Rd (Balaclava),144.99255079685463,-37.87662283805167
40-Scott St/Brighton Rd (Balaclava),144.9939789108087,-37.87887283823035
41-Coleridge St/Brighton Rd (Balaclava),144.9951669054423,-37.88078488830059
42-Hotham St/Brighton Rd (Balaclava),144.99650681769134,-37.88294380843116
43-Brighton Rd/Glenhuntly Rd (Elsternwick),144.99784781395408,-37.88378683858055
44-Elsternwick Railway Station/Glenhuntly Rd (Elsternwick),145.00038581021602,-37.88413684887817
45-Elsternwick Shopping Centre/Glenhuntly Rd (Elsternwick),145.00381804570878,-37.88459980928395
46-Orrong Rd/Glenhuntly Rd (Elsternwick),145.00571092348582,-37.884848839509296
47-Shoobra Rd/Glenhuntly Rd (Elsternwick),145.00913307992434,-37.88525788991932
48-Parkside St/Glenhuntly Rd (Elsternwick),145.01227300473147,-37.885635890026194
49-Kooyong Rd/Glenhuntly Rd (Elsternwick),145.01487977130884,-37.88594981002762
50-Royal Pde/Glenhuntly Rd (Caulfield),145.01833578020737,-37.88637785002848
67-Rogers Ave/Hawthorn Rd (Brighton East),145.01753692964584,-37.911064850877665
66-Union St/Hawthorn Rd (Brighton East),145.01797001008836,-37.90850381056861
65-Davey Ave/Hawthorn Rd (Brighton East),145.0183350507448,-37.90635686027939
64-Taylor St/Hawthorn Rd (Brighton East),145.018813852624,-37.903768820075996
63-North Rd/Hawthorn Rd (Brighton East),145.0193380156292,-37.901182850066846
62-Gardenvale Rd/Hawthorn Rd (Caulfield South),145.01980709845836,-37.89895589005903
61-Stone St/Hawthorn Rd (Caulfield South),145.02025890163202,-37.89653885005077
60-Dover St/Hawthorn Rd (Caulfield South),145.02055410390858,-37.89486782004514
59-Princes Park/Hawthorn Rd (Caulfield South),145.0209097866011,-37.89302687003894
58-Sycamore St/Hawthorn Rd (Caulfield South),145.02155887114915,-37.88959481002867
57-Glenhuntly Rd/Hawthorn Rd (Caulfield),145.02210390995825,-37.88664785002805
56-Briggs St/Hawthorn Rd (Caulfield),145.0224487891315,-37.884824810028334
55-Sylverly Gr/Hawthorn Rd (Caulfield North),145.02292182796697,-37.882435850029516
54-Glen Eira Rd/Hawthorn Rd (Caulfield North),145.02340998655544,-37.87992089003173
53-Northcote Ave/Hawthorn Rd (Caulfield North),145.0239258648169,-37.877198840035206
52-Halstead St/Hawthorn Rd (Caulfield North),145.02436182319758,-37.874925890030624
51-Balaclava Rd/Hawthorn Rd (Caulfield North),145.02482585993,-37.872427849700244
50-Inkerman Rd/Hawthorn Rd (Caulfield North),145.02541589578502,-37.86950086940783
49-Arthur St/Hawthorn Rd (Caulfield North),145.02576005316484,-37.867676839231216
48-Hawthorn Rd/Dandenong Rd (Caulfield North),145.02577480947878,-37.86541486892247
44-Bailey Ave/Dandenong Rd (Armadale),145.02384304657693,-37.86454483856488
43-Egerton Rd/Dandenong Rd (Armadale),145.02205600469443,-37.86377587829025
42-Kooyong Rd/Dandenong Rd (Armadale),145.01922496238896,-37.86255682781063
41-Cantala Ave/Dandenong Rd (Armadale),145.0177410415064,-37.86190981753595
40-Wattletree Rd/Dandenong Rd (Armadale),145.01517892053602,-37.86081181703003
38-Orrong Rd/Dandenong Rd (Prahran),145.01112496036376,-37.86025687642414
37-Lansdowne Rd/Dandenong Rd (St Kilda East),145.0075339606587,-37.85979085556132
36-Closeburn Ave/Dandenong Rd (St Kilda East),145.00464676155218,-37.85938180480853
35-Williams Rd/Dandenong Rd (Prahran),145.00207600261325,-37.85904988415453
34-The Avenue/Dandenong Rd (Windsor),144.99723976552332,-37.858399812969495
33-Hornby St/Dandenong Rd (Windsor),144.99570004668453,-37.85819281260436
32-Chapel St/Dandenong Rd (Windsor),144.99200177582327,-37.85748082303077
31-Queens Way/Queens Way (Windsor),144.98741178775626,-37.85614081362087
70-Cotham Rd/Burke Rd (Kew),145.06060191951877,-37.81085984492675
69-Peverill St/Burke Rd (Balwyn),145.06007488083097,-37.814094895782624
68-Mont Albert Rd/Burke Rd (Camberwell),145.0597710419015,-37.81572983593183
67-Camberwell Girls Grammar/Burke Rd (Canterbury),145.0592328444096,-37.81847888565396
66-Canterbury Rd/Burke Rd (Camberwell),145.05872776727975,-37.821273835439534
64-Camberwell Station/Burke Rd (Camberwell),145.05782093284535,-37.825953835256286
63-Prospect Hill Rd/Burke Rd (Camberwell),145.05743789557224,-37.82801087523731
61-Camberwell Junction/Burke Rd (Camberwell),145.05684605847858,-37.831074835211076
60-Reserve Rd/Burke Rd (Camberwell),145.05631793869583,-37.833876895057756
59-Seymour Gr/Burke Rd (Camberwell),145.0560799787723,-37.83517982497469
58-Currajong Ave/Burke Rd (Camberwell),145.05552593894217,-37.838072874778625
57-Pine Ave/Burke Rd (Camberwell),145.05514505903443,-37.840048824628916
56-Anderson Rd/Burke Rd (Camberwell),145.0548548986496,-37.84157585442293
55-Middle Rd/Burke Rd (Camberwell),145.0544599772936,-37.8436428840328
54-Toorak Rd/Burke Rd (Camberwell),145.05408989531554,-37.84560083359393
53-Howitt St/Burke Rd (Glen Iris),145.05363305231506,-37.84786487294915
52-Bickleigh St/Burke Rd (Glen Iris),145.0532280500917,-37.84986782240936
51-Gardiner Station/Burke Rd (Glen Iris),145.05266896749998,-37.85294888164317
50-Glenarm Rd/Malvern Rd (Glen Iris),145.05130096638163,-37.85440481119918
49-Belmont Ave/Malvern Rd (Glen Iris),145.04842384570432,-37.854032840982406
48-Edgar St/Malvern Rd (Glen Iris),145.04584084466137,-37.853718830753344
47-Tooronga Rd/Malvern Rd (Glen Iris),145.04230600257875,-37.85329088039291
46-Shaftesbury Ave/Malvern Rd (Malvern),145.03882876108094,-37.85284583011153
45-Elizabeth St/Malvern Rd (Malvern),145.0355099224404,-37.85242085009575
44-Plant St/Malvern Rd (Malvern),145.0328938040203,-37.85207084012069
43-Glenferrie Rd/Malvern Rd (Malvern),145.03021000613774,-37.85170985018067
42-Lauriston Girls School/Malvern Rd (Armadale),145.0263367700973,-37.851176870331216
41-Murray St/Malvern Rd (Malvern),145.02392405191503,-37.85086583012208
40-Kooyong Rd/Malvern Rd (Toorak),145.02160205238246,-37.85057485951198
39-Densham Rd/Malvern Rd (Toorak),145.01843189306186,-37.85014285864452
38-Clendon Rd/Malvern Rd (Toorak),145.0156228136325,-37.84977988783276
37-Orrong Rd/Malvern Rd (Toorak),145.01247497427468,-37.84936687687958
51-Hawthorn Rd/Glenhuntly Rd (Caulfield),145.0217698292409,-37.88679581002814
52-Jasmine St/Glenhuntly Rd (Caulfield),145.02412711556903,-37.88709686002721
53-Glenhuntly Tram Depot/Glenhuntly Rd (Caulfield),145.02675583258915,-37.88743787010958
54-Bambra Rd/Glenhuntly Rd (Caulfield),145.02869478633798,-37.887659810187486
55-Fallon St/Glenhuntly Rd (Caulfield),145.0306207798158,-37.8879178402467
56-Kambrook Rd/Glenhuntly Rd (Caulfield),145.03309109098257,-37.88823788029937
57-Clarke Ave/Glenhuntly Rd (Caulfield East),145.03512004336008,-37.888488890324524
58-Booran Rd/Glenhuntly Rd (Caulfield East),145.03754607382515,-37.888780850333575
60-Glenhuntly Shops/Glenhuntly Rd (Caulfield East),145.04048186414437,-37.88911889029938
61-Glenhuntly Railway Station/Glenhuntly Rd (Caulfield South),145.04183006531804,-37.889293850237515
62-Grange Rd/Glenhuntly Rd (Caulfield East),145.0445959481142,-37.88961983014208
34-Maribyrnong Rd/Ascot Vale Rd (Moonee Ponds),144.92402984328876,-37.77243882387863
35-Moore St/Maribyrnong Rd (Moonee Ponds),144.92123984249653,-37.77232686358264
36-Bayview Tce/Maribyrnong Rd (Moonee Ponds),144.91826300371474,-37.77201285339405
37-Union Rd/Maribyrnong Rd (Moonee Ponds),144.91632800552688,-37.77179883327897
38-Ferguson St/Maribyrnong Rd (Ascot Vale),144.91276292922555,-37.77140184300994
39-Bowen St/Maribyrnong Rd (Moonee Ponds),144.90918597338356,-37.771013852665234
40-Epsom Rd/Maribyrnong Rd (Ascot Vale),144.90567813794362,-37.77061785225427
37-Maribyrnong Rd/Union Rd (Ascot Vale),144.91607600570052,-37.77185679324891
36-St Leonards Rd/Union Rd (Ascot Vale),144.9157858443212,-37.77368982295149
35-Munro St/Union Rd (Ascot Vale),144.91540100225185,-37.77608985260465
34-Burrowes St/Union Rd (Ascot Vale),144.9149549597385,-37.77861381229644
32-Sandown Rd/Epsom Rd (Ascot Vale),144.91668079714154,-37.78265481143103
31-Racing Victoria/400 Epsom Rd (Flemington),144.91821007765338,-37.7844117907457
30-Flemington Racecourse/Epsom Rd (Flemington),144.91979192181563,-37.78589985031665
29-Flemington Racecourse/Racecourse Rd (Flemington),144.92189505015335,-37.78743282164557
28-Smithfield Rd/Racecourse Rd (Flemington),144.925351057595,-37.78772784386893
26-Newmarket Plaza/Racecourse Rd (Kensington),144.92839594372114,-37.7880608458194
25-Wellington St/Racecourse Rd (Flemington),144.93046594756225,-37.78834083713898
24-Collett St/Racecourse Rd (Kensington),144.93352811292175,-37.788493839070036
23-Stubbs St/Racecourse Rd (Flemington),144.9354861551743,-37.788735850003576
22-Boundary Rd/Racecourse Rd (North Melbourne),144.9401510344462,-37.78919584003127
19-Abbotsford St Interchange/Abbotsford St (North Melbourne),144.9471688681046,-37.79371582006193
18-Erskine St/Abbotsford St (North Melbourne),144.9468088660265,-37.79523286006
17-Canning St/Abbotsford St (North Melbourne),144.9465410240067,-37.79670580005889
16-Haines St/Abbotsford St (North Melbourne),144.9463250222932,-37.79795482005842
15-Arden St/Abbotsford St (North Melbourne),144.94584081822825,-37.80065887003603
14-Abbotsford St/Queensberry St (North Melbourne),144.94580805446108,-37.80264984996716
23-Royal Park/Royal Park (Parkville),144.94930007124654,-37.79140084007189
24-Elliott Ave/Royal Park (Parkville),144.9496251560858,-37.78786483008412
25-State Netball Hockey Centre/Royal Park (Parkville),144.9486758392337,-37.78436985991815
26-Melbourne Zoo/Royal Park (Parkville),144.94928783671855,-37.78236186939342
27-Royal Park Station/Royal Park (Parkville),144.95093087209497,-37.78085886898832
28-Park St/Royal Park (Parkville),144.94949590998345,-37.776903817960275
29-Brunswick Rd/Royal Park (Parkville),144.94875394794062,-37.77580086760591
30-Union Square Shopping Centre/Grantham St (Brunswick West),144.94932094435345,-37.772548806791946
31-Dawson St/Grantham St (Brunswick West),144.94974682212208,-37.77028485624767
32-Foden St/Dawson St (Brunswick),144.94736181791285,-37.76990982582003
33-Daly St/Dawson St (Brunswick),144.94443105255024,-37.76957979531091
34-Smith St/Melville Rd (Brunswick West),144.94310084500918,-37.76760087445546
35-Victoria St/Melville Rd (Brunswick West),144.94368583757273,-37.76489880357815
36-Hope St/Melville Rd (Brunswick West),144.94415994937492,-37.762148852649354
37-Albion St/Melville Rd (Brunswick West),144.94477697844326,-37.758726871463445
38-Jacobs Reserve/Melville Rd (Brunswick West),144.94516001172573,-37.756750830762726
39-McGregor Ave/Melville Rd (Brunswick West),144.9455560059392,-37.75476579014293
40-Moreland Rd/Melville Rd (Brunswick West),144.94566076908754,-37.7534157902404
41-Woodlands Ave/Melville Rd (Pascoe Vale South),144.94635989799306,-37.74949881045688
42-Reynard St/Melville Rd (Pascoe Vale South),144.94433994664044,-37.74659784092566
43-Princes Tce/Melville Rd (Pascoe Vale South),144.94477303222436,-37.74410880108164
44-Brearley Pde/Melville Rd (Pascoe Vale South),144.94513879722004,-37.74195285118706
51-Balwyn Rd/Doncaster Rd (Balwyn North),145.08463697934462,-37.79463482471109
50-Dight Ave/Doncaster Rd (Balwyn North),145.08094193747857,-37.794358884078676
49-Buchanan Ave/Doncaster Rd (Balwyn North),145.07772785563014,-37.79392787352917
48-Osburn Ave/Doncaster Rd (Balwyn North),145.07457281357173,-37.793398852972544
47-North Balwyn Shopping Centre/Doncaster Rd (Balwyn North),145.07072981076604,-37.79271386225772
46-Wattle Ave/Doncaster Rd (Balwyn North),145.06740700697873,-37.792992861787766
26-Ferrars St/Park St (South Melbourne),144.9564111226405,-37.83661882093923
43-Kew High School/High St (Kew East),145.06135503788755,-37.79468684128469
42-Woodlands Ave/High St (Kew East),145.05767799017235,-37.79631089129743
41-Station St/High St (Kew East),145.05393290427997,-37.79795285140814
40-Harp Village/High St (Kew East),145.0521980656239,-37.79870786136564
39-Harp Rd/High St (Kew East),145.05027890683667,-37.79955089134725
38-Victoria Park/High St (Kew East),145.0461777910897,-37.80130283138367
37-Kew Cemetery/High St (Kew),145.04265807377928,-37.80256886142633
36-Gladstone St/High St (Kew),145.0400199947647,-37.8035258315132
35-Charles St/High St (Kew),145.03598296021485,-37.80499886176884
34-Union St/High St (Kew),145.03417180204312,-37.805626881800556
33-Kew Shopping Centre/High St (Kew),145.0313170039579,-37.806660891773085
25-Brook St/Church St (Hawthorn),145.02098787231776,-37.81574287905095
24-Hill St/Church St (Hawthorn),145.01875876006503,-37.81795786696017
65-Victoria St/Church St (Richmond),145.00062989981168,-37.8107128647801
64-Elizabeth St/Church St (Richmond),145.0001709003058,-37.81257883480642
63-Tweedie Pl/Church St (Richmond),144.99988578033302,-37.814304854808086
62-Highett St/Church St (Richmond),144.99957978104413,-37.81594888464871
61-Bridge Rd/Church St (Richmond),144.99908478349187,-37.818715844143895
60-Abinger St/Church St (Richmond),144.99881586500584,-37.82028886384156
59-St Ignatius Church/Church St (Richmond),144.99854694657077,-37.82182480353941
58-Gipps St/Church St (Richmond),144.9981689489761,-37.824044833085715
57-Swan St/Church St (Richmond),144.99782695100313,-37.825768872730094
55-Adelaide St/Church St (Cremorne),144.99727507498045,-37.82895883202881
54-Cotter St/Church St (Cremorne),144.99719299660373,-37.83031783183996
53-Howard St/Church St (Richmond),144.99679987991223,-37.83265486227996
51-Malcolm St/Chapel St (South Yarra),144.99634808517274,-37.83635080290649
50-Toorak Rd/Chapel St (South Yarra),144.99550893103557,-37.83963481339828
49-Palermo St/Chapel St (South Yarra),144.99528609408196,-37.841558833660336
48-Cliff St/Chapel St (South Yarra),144.99465681738158,-37.84381981385958
47-Commercial Rd/Chapel St (Prahran),144.99403797076351,-37.84696288365884
46-Chatham St/Chapel St (Prahran),144.99368408276862,-37.84909282341669
45-High St/Chapel St (Prahran),144.99328879266406,-37.851942853178144
44-Duke St/Chapel St (Windsor),144.99283302563404,-37.85408881305904
43-Windsor Railway Station/Chapel St (Windsor),144.9924568190221,-37.85622685299941
42-Dandenong Rd/Chapel St (St Kilda East),144.99216089412835,-37.85790787299253
41-St Michaels Grammar School/Chapel St (St Kilda),144.9918790096953,-37.8595158130186
40-Alma Rd/Chapel St (St Kilda East),144.9915157725821,-37.861563853603556
39-Argyle St/Chapel St (St Kilda East),144.99119393713752,-37.86337888423135
38-Inkerman St/Chapel St (St Kilda East),144.99079686207116,-37.86542683490576
37-Chapel St/Carlisle St (Balaclava),144.99014094847206,-37.868236815763964
36-St Kilda Town Hall/Carlisle St (St Kilda),144.98869086989814,-37.86807688577866
37-Carlisle St/Chapel St (St Kilda),144.99023706879223,-37.86846388582443
36-Brighton Rd/Chapel St (St Kilda),144.98977987404973,-37.87107784654284
35-St Kilda Rd/Carlisle St (St Kilda),144.98657191210447,-37.867814805817396
34-Greeves St/Carlisle St (St Kilda),144.9840119550241,-37.86746488590025
33-Barkly St/Carlisle St (St Kilda),144.9810909187648,-37.86705385605325
38-Balaclava Station/Carlisle St (Balaclava),144.99424098518716,-37.86879283583038
39-Orange Gr/Carlisle St (Balaclava),144.9965190624872,-37.86905680618112
40-Hotham St/Carlisle St (Balaclava),144.9992950183712,-37.8694198667887
41-Empress Rd/Balaclava Rd (St Kilda East),145.00158281464144,-37.86969283726433
42-Sidwell Ave/Balaclava Rd (Caulfield North),145.00532284802554,-37.87015282801734
43-Orrong Rd/Balaclava Rd (Caulfield North),145.00847176193034,-37.870539828622796
44-Ontario St/Balaclava Rd (Caulfield North),145.01236876175886,-37.87105588907435
45-Lumeah Rd/Balaclava Rd (Caulfield North),145.0147379249035,-37.871330839217144
46-Kooyong Rd/Balaclava Rd (Caulfield North),145.01762692898635,-37.871712889386245
47-Elmhurst Rd/Balaclava Rd (Caulfield North),145.0211048942057,-37.87213183956005
51-Hawthorn Rd/Balaclava Rd (Caulfield North),145.02443597957136,-37.87255681970818
52-Caulfield Park Bowling Club/Balaclava Rd (Caulfield North),145.02855006473578,-37.873067840656084
53-Caulfield Park/Balaclava Rd (Caulfield North),145.03125798787735,-37.873382841375445
54-Kambrook Rd/Balaclava Rd (Caulfield North),145.03582495313447,-37.87394588262624
55-Normanby Rd/Balaclava Rd (Caulfield North),145.03770595527604,-37.87418483315475
56-Caulfield Racecourse/Normanby Rd (Caulfield North),145.0394019164355,-37.875402893678434
57-Caulfield Railway Station/Derby Rd (Caulfield East),145.04168287112952,-37.87638686317964
58-Dandenong Rd/Derby Rd (Caulfield North),145.04187187334654,-37.87569584328986
59-Dandenong Rd/Waverley Rd (Malvern East),145.0449520291811,-37.87574687251201
60-Burke Rd/Waverley Rd (Malvern East),145.04805198486207,-37.87587989172509
61-Tennyson St/Waverley Rd (Malvern East),145.05094206057913,-37.87623386098894
62-The Avenue/Waverley Rd (Malvern East),145.05469289562862,-37.876683860086516
63-Oak Gr/Waverley Rd (Malvern East),145.0565519355778,-37.87690382007383
27-Park St/Montague St (South Melbourne),144.9541820029061,-37.83750883065604
28-Montague St/Bridport St (Albert Park),144.95538981064695,-37.84066585080645
29-Bridport St/Victoria Ave (Albert Park),144.9533428517373,-37.84154983055331
30-Richardson St/Victoria Ave (Albert Park),144.95128905683072,-37.84392880030568
31-Graham St/Victoria Ave (Albert Park),144.94983213757894,-37.84566085026322
32-Beaconsfield Pde/Victoria Ave (Albert Park),144.948734851641,-37.84711084047997
124-Walsh St/Toorak Rd (South Yarra),144.98457104309605,-37.83817681164641
125-Punt Rd/Toorak Rd (South Yarra),144.98674688468935,-37.838403881963096
126-Myrtle St/Toorak Rd (South Yarra),144.9895098869189,-37.83877486239422
127-South Yarra Railway Station/Toorak Rd (South Yarra),144.9921710092381,-37.83911785284379
128-Chapel St/Toorak Rd (South Yarra),144.99582897026616,-37.83956785339982
129-Tivoli Rd/Toorak Rd (South Yarra),144.99867188457034,-37.839913813568394
130-Hawksburn Rd/Toorak Rd (South Yarra),145.0023420769492,-37.84035481383549
131-Williams Rd/Toorak Rd (Toorak),145.00536607044657,-37.84071184409615
132-Toorak Village/Toorak Rd (Toorak),145.00845810359544,-37.84107985440288
133-Canterbury Rd/Toorak Rd (Toorak),145.01089385978665,-37.841373884966536
43-Deepdene Shopping Centre/Whitehorse Rd (Balwyn),145.0648830434417,-37.8109118648619
119-Park St/Lygon St (Carlton North),144.9704770320418,-37.77940383743978
120-Brunswick Rd/Lygon St (Brunswick),144.970640113051,-37.77844182708336
121-Weston St/Lygon St (Brunswick East),144.97097707578212,-37.77565380607065
122-Glenlyon Rd/Lygon St (Brunswick East),144.97142095849904,-37.77272385502155
123-Albert St/Lygon St (Brunswick East),144.9719559205305,-37.76976780409138
124-Victoria St/Lygon St (Brunswick East),144.97223707831375,-37.768186864307864
125-Blyth St/Lygon St (Brunswick East),144.97251787616648,-37.76665083451797
126-Stewart St/Lygon St (Brunswick East),144.9729081130529,-37.764413794823426
127-Albion St/Lygon St (Brunswick East),144.97327099020117,-37.76235585510397
128-Mitchell St/Holmes St (Brunswick East),144.97433982608632,-37.759373795510854
129-Moreland Rd/Holmes St (Brunswick),144.97475994266173,-37.75686684585076
130-Barrow St/Moreland Rd (Coburg),144.97015878165848,-37.756192835936396
131-De Carle St/Moreland Rd (Coburg),144.9665260210253,-37.755796835986594
132-Sydney Rd/Moreland Rd (Coburg),144.96428501971184,-37.75555086574796
133-Moreland Station/Moreland Rd (Coburg),144.96238709668927,-37.75524684504781
130-The Avenue/Nicholson St (Coburg),144.97595082152387,-37.753552865970015
45-Glenferrie Rd/Wattletree Rd (Malvern),145.02851404795643,-37.862441808953974
44-Duncraig Ave/Wattletree Rd (Armadale),145.02538780350505,-37.8620558883984
42-Clyde St/Raleigh Rd (Maribyrnong),144.89884713117308,-37.76968581130787
43-Egerton Rd/Wattletree Rd (Armadale),145.02275980210135,-37.86169687804493
50-Vincent St/Wattletree Rd (Malvern East),145.04338097998505,-37.864212830983625
42-Kooyong Rd/Wattletree Rd (Armadale),145.01990500129017,-37.861332827669884
51-Erica Ave/Wattletree Rd (Malvern East),145.0465770563512,-37.86459983078716
38-Renown St/Sydney Rd (Coburg),144.96427207171413,-37.731605823836524
28-Punt Rd/High St (Prahran),144.9840529991083,-37.850550822575414
44-Barb St/Raleigh Rd (Maribyrnong),144.89199092152285,-37.76887779043609
29-Perth St/High St (Prahran),144.98773291750982,-37.85103682291564
30-Prahran Station/High St (Prahran),144.98973703622264,-37.85130583304796
31-Chapel St/High St (Prahran),144.99321499340297,-37.851742873188925
45-Randall St/Raleigh Rd (Maribyrnong),144.88894388059018,-37.76861580030268
32-Hornby St/High St (Prahran),144.99644202883928,-37.85218585347361
52-Burke Rd/Wattletree Rd (Malvern East),145.0500769723763,-37.865062880526644
33-The Avenue/High St (Prahran),144.99809478581793,-37.85242084377467
34-Bell St/Sydney Rd (Coburg),144.96647598282254,-37.741457856021086
33-Coburg Market/Sydney Rd (Coburg),144.96615378212155,-37.74324579606667
32-Munro St/Sydney Rd (Coburg),144.96584382151917,-37.74505182610017
31-Reynard St/Sydney Rd (Coburg),144.9652098605667,-37.74872679613602
30-The Avenue/Sydney Rd (Coburg),144.96464177980886,-37.75205985597533
34-Lewisham Rd/High St (Prahran),144.9996910230623,-37.85263783407306
28-Moreland Rd/Sydney Rd (Brunswick),144.96402185949754,-37.755626825641244
27-Brunswick Tram Depot/Sydney Rd (Brunswick),144.9636449427076,-37.757801855306944
26-Albion St/Sydney Rd (Brunswick),144.96309306787967,-37.76094582492696
25-Stewart St/Sydney Rd (Brunswick),144.96270103201635,-37.76321886473115
24-Brunswick Baptist Church/Sydney Rd (Brunswick),144.9623079166237,-37.76556480459661
23-Victoria St/Sydney Rd (Brunswick),144.96203791988896,-37.76712783454426
22-Albert St/Sydney Rd (Brunswick),144.96172688385448,-37.76893386452164
21-Brunswick Town Hall/Sydney Rd (Brunswick),144.96126680541485,-37.77162981517318
20-Barkly Square/115 Sydney Rd (Brunswick),144.96074804416526,-37.7748288664032
19-Brunswick Rd/Sydney Rd (Brunswick),144.96027500362166,-37.77757782743643
18-Princes Park/Royal Pde (Parkville),144.9599420035844,-37.77936585809635
17-Ievers St/Royal Pde (Parkville),144.95964608329123,-37.78187487899774
16-Visy Park/Royal Pde (Parkville),144.95927996333816,-37.78484281004546
15-Leonard St/Royal Pde (Parkville),144.95889980310008,-37.78791783986197
14-Macarthur Rd/Royal Pde (Parkville),144.95864996277822,-37.79000385970633
13-Gatehouse St/Royal Pde (Parkville),144.95831588228222,-37.792665879521714
12-Morrah St/Royal Pde (Parkville),144.95795012151575,-37.79564280933261
18-Princes Park/Royal Pde (Parkville),144.9601580029357,-37.779369818085996
11-University of Melbourne/Royal Pde (Parkville),144.9576621205881,-37.798259829177994
35-Williams Rd/High St (Prahran),145.0023298187735,-37.852997834580236
36-Chatsworth Rd/High St (Prahran),145.0062818929703,-37.8535428753724
37-Airlie Ave/High St (Prahran),145.0086600498752,-37.85385283586821
38-Orrong Rd/High St (Prahran),145.0114579679457,-37.85420680648682
39-Auburn Gr/High St (Armadale),145.0149798471854,-37.85467183725069
40-Armadale Station/High St (Armadale),145.01825296646982,-37.85510581790735
41-Kooyong Rd/High St (Armadale),145.02058684596813,-37.85540587834594
42-Huntingtower Rd/High St (Armadale),145.02367888527786,-37.855818888884436
43-Mercer Rd/High St (Armadale),145.02594400507516,-37.856108869139995
44-Glenferrie Rd/High St (Malvern),145.0291717658182,-37.85652286929688
45-De La Salle College/High St (Malvern),145.03238908724921,-37.85692885950172
46-Fraser St/High St (Malvern),145.03561684941812,-37.85736985975189
47-Dixon St/High St (Malvern),145.038018771479,-37.85768080997149
48-Tooronga Rd/High St (Glen Iris),145.04105501302675,-37.858064840204385
49-Harold Holt Swim Centre/High St (Glen Iris),145.04420393126293,-37.8584408602687
50-Belmont Ave/High St (Glen Iris),145.04826076811898,-37.858931810288354
51-Burke Rd/High St (Glen Iris),145.05121780519656,-37.85929685025651
52-Boyanda Rd/High St (Glen Iris),145.05380080221423,-37.8596008702007
53-Malvern Rd/High St (Glen Iris),145.05633700208543,-37.85998481062941
52-Boyanda Rd/High St (Glen Iris),145.05419500160468,-37.859768810160034
51-Burke Rd/High St (Glen Iris),145.0515090448357,-37.85947289022379
50-Belmont Ave/High St (Glen Iris),145.0484148480477,-37.85909687026704
49-Harold Holt Swim Centre/High St (Glen Iris),145.04471009114056,-37.85865686026342
48-Tooronga Rd/High St (Glen Iris),145.0413678532274,-37.858258880210265
47-Dixon St/High St (Malvern),145.03801481173474,-37.85780680996783
46-Fraser St/High St (Malvern),145.035805849788,-37.857544819758246
45-De La Salle College/High St (Malvern),145.03289488764426,-37.85714386952029
44-Glenferrie Rd/High St (Malvern),145.02950908591504,-37.85669080929372
43-Mercer Rd/High St (Armadale),145.0262348849808,-37.85627581912137
42-Huntingtower Rd/High St (Armadale),145.02383296505084,-37.85598286887587
41-Kooyong Rd/High St (Armadale),145.0208100457367,-37.85557183836132
40-Armadale Station/High St (Armadale),145.01840776625687,-37.85526088791823
39-Auburn Gr/High St (Armadale),145.01536180692182,-37.854858857318305
38-Orrong Rd/High St (Armadale),145.0117150077168,-37.854372856541964
37-Airlie Ave/High St (Prahran),145.00869100964675,-37.85397982587464
36-Chatsworth Rd/High St (Prahran),145.0068787719258,-37.85375086549327
35-Williams Rd/High St (Prahran),145.00262105801045,-37.853155874630566
34-Lewisham Rd/High St (Prahran),145.00011906197662,-37.852815854144595
33-The Avenue/High St (Prahran),144.99861282451454,-37.8526098438597
51-Nott St/Wattletree Rd (Malvern East),145.04700401600581,-37.864768850773004
40-North Coburg Terminus/Sydney Rd (Coburg North),144.9636561156981,-37.72756680285633
39-Mercy College/Sydney Rd (Coburg North),144.96386491346124,-37.72987782338847
38-Carr St/Sydney Rd (Coburg North),144.9646327911851,-37.73209884400473
37-Gaffney St/Sydney Rd (Coburg North),144.96541290932555,-37.73384286456428
36-Rogers St/Sydney Rd (Coburg),144.96608178786067,-37.7355208250145
35-St Pauls Catholic Church/Sydney Rd (Coburg),144.96693606643942,-37.73749182543652
34-Bell St/Sydney Rd (Coburg),144.9666660631054,-37.74114582599483
33-Coburg Market/Sydney Rd (Coburg),144.9663618623475,-37.7431228560433
32-Harding St/Sydney Rd (Coburg),144.9660637817321,-37.74487479607948
31-Edward St/Sydney Rd (Coburg),144.9654561007328,-37.74846084612276
30-The Avenue/Sydney Rd (Coburg),144.9648520200161,-37.751847816060966
29-Moore St/Sydney Rd (Coburg),144.9645568194734,-37.75349184593041
28-Moreland Rd/Sydney Rd (Coburg),144.96425801927668,-37.75529787576595
27-Brunswick Tram Depot/Sydney Rd (Brunswick),144.96388182226403,-37.757408825415084
26-Albion St/Sydney Rd (Brunswick),144.9633148275557,-37.76072487498426
25-Stewart St/Sydney Rd (Brunswick),144.96290983171642,-37.76306982476114
24-Blyth St/Sydney Rd (Brunswick),144.96251779608335,-37.76534286461033
23-Victoria St/Sydney Rd (Brunswick),144.96223483941063,-37.76696880454204
22-Albert St/Sydney Rd (Brunswick),144.96192488324587,-37.7687478345054
21-Glenlyon Rd/Sydney Rd (Brunswick),144.96147884527974,-37.771353875043474
19-Brunswick Rd/Sydney Rd (Brunswick),144.96039812325753,-37.77763380744775
17-Ievers St/Royal Pde (Parkville),144.95984408271585,-37.78167084891938
16-Walker St/Royal Pde (Parkville),144.95951504253208,-37.78457586995117
15-Leonard St/Royal Pde (Parkville),144.95913488237275,-37.78766079987696
14-Cemetery Road West/Royal Pde (Parkville),144.95888504212638,-37.78970181972025
13-Gatehouse St/Royal Pde (Parkville),144.95854988167162,-37.792408839526004
12-Morrah St/Royal Pde (Parkville),144.95817908088736,-37.79554785931865
11-University of Melbourne/Royal Pde (Parkville),144.95786012015074,-37.79809179916734
7-Russell St/Bourke St (Melbourne City),144.9683598875971,-37.8127558603978
6-Swanston St/Bourke St (Melbourne City),144.96591009471294,-37.81347082006413
5-Elizabeth St/Bourke St (Melbourne City),144.96351609515395,-37.81420387002897
4-Queen St/Bourke St (Melbourne City),144.9598408465148,-37.81523986014451
3-William St/Bourke St (Melbourne City),144.9576308000479,-37.81586887018041
32-Hornby St/High St (Prahran),144.9965399481339,-37.85234083347534
31-Chapel St/High St (Prahran),144.99353899254615,-37.85193781318502
30-Prahran Station/High St (Windsor),144.98930395620548,-37.85137882303242
29-Perth St/High St (Windsor),144.9879330771248,-37.85119387294663
28-Punt Rd/High St (Windsor),144.98437699883814,-37.85074486264814
37-Gaffney St/Sydney Rd (Coburg),144.96532686896785,-37.734083794620695
1-Spencer St/Bourke St (Melbourne City),144.95351994873388,-37.8170498501825
1-Spencer St/Bourke St (Melbourne City),144.9540030700411,-37.81683286018403
1-Flinders Street Railway Station/Elizabeth St (Melbourne City),144.96477105656476,-37.817703880473864
2-Collins St/Elizabeth St (Melbourne City),144.96367485675734,-37.81541482017492
3-Bourke Street Mall/Elizabeth St (Melbourne City),144.9627640518169,-37.81343382994542
5-Melbourne Central Station/Elizabeth St (Melbourne City),144.9614349247317,-37.81054482966403
7-Queen Victoria Market/Elizabeth St (Melbourne City),144.9595798394716,-37.80654783938512
8-Peel St/Victoria St (Melbourne City),144.9562239206448,-37.805921799591246
9-William St/Victoria St (Melbourne City),144.95391380209676,-37.80567483976125
10-Chetwynd St/Victoria St (Melbourne City),144.9523971232883,-37.80550383987799
11-Errol St/Victoria St (Melbourne City),144.94945196620654,-37.8051828100456
11-Victoria St/Errol St (North Melbourne),144.94934504690863,-37.804945840041015
10-Chetwynd St/Victoria St (Melbourne City),144.95203604374066,-37.80538980990479
9-Howard St/Victoria St (Melbourne City),144.95350808250683,-37.805550819789296
8-Peel St/Victoria St (Melbourne City),144.9557498009537,-37.80579687962129
9-Pelham St/Elizabeth St (Melbourne City),144.95746987994755,-37.80193380921818
10-Royal Melbourne Hospital/Royal Pde (Melbourne City),144.9574468400381,-37.79988783909295
10-Royal Melbourne Hospital/Royal Pde (Parkville),144.95767111966802,-37.799566809086485
9-Pelham St/Elizabeth St (Melbourne City),144.957668959583,-37.80213486921014
7-Queen Victoria Market/Elizabeth St (Melbourne City),144.95985487968525,-37.806876879394764
5-Melbourne Central Station/Elizabeth St (Melbourne City),144.9617841259945,-37.81109184970908
3-Bourke Street Mall/Elizabeth St (Melbourne City),144.9631341338441,-37.81402585001043
2-Collins St/Elizabeth St (Melbourne City),144.96400209698942,-37.81591585023732
1-Flinders Street Railway Station/Elizabeth St (Melbourne City),144.9648459364982,-37.81788586049921
11-Melbourne Museum/Nicholson St (Fitzroy),144.97360687233578,-37.80574486140508
10-Albert St/Nicholson St (Fitzroy),144.97295491539012,-37.80966283119635
9-Spring St/Bourke St (Melbourne City),144.97258483741157,-37.81153087111681
3-William St/Bourke St (Melbourne City),144.95791988094578,-37.81569283017069
4-Queen St/Bourke St (Melbourne City),144.96006008723458,-37.815108820133624
5-Elizabeth St/Bourke St (Melbourne City),144.96369105516823,-37.81401784000499
6-Swanston St/Bourke St (Melbourne City),144.96638205308275,-37.81325284011483
7-Russell St/Bourke St (Melbourne City),144.96917492532057,-37.81245481051848
50-Anderson St/Wattletree Rd (Malvern East),145.04371793975324,-37.864371860986935
9-Spring St/Bourke St (Melbourne City),144.97241599770905,-37.81150981108427
10-Albert St/Nicholson St (East Melbourne),144.97290487527658,-37.80940984118602
11-Melbourne Museum/Nicholson St (Fitzroy),144.9735517923121,-37.80566287139017
12-St Vincents Plaza/Victoria Pde (East Melbourne),144.97613911107604,-37.80826684199561
11-Albert St/Gisborne St (East Melbourne),144.9757341115091,-37.80937681183594
10-Parliament Railway Station/Macarthur St (East Melbourne),144.97449391411607,-37.81236580145737
8-Spring St/Collins St (Melbourne City),144.9732907973558,-37.81354381123154
6-Melbourne Town Hall/Collins St (Melbourne City),144.96596301751947,-37.815660880333056
5-Elizabeth St/Collins St (Melbourne City),144.96340989479367,-37.816409860289966
3-William St/Collins St (Melbourne City),144.95943512337078,-37.81759381033591
1-Spencer St/Collins St (Melbourne City),144.95506111188433,-37.8188338302881
1-Spencer St/Collins St (Melbourne City),144.9551889122366,-37.81872781028775
3-William St/Collins St (Melbourne City),144.9599189647953,-37.81735882032692
5-Elizabeth St/Collins St (Melbourne City),144.9638699762785,-37.81619287026965
6-Melbourne Town Hall/Collins St (Melbourne City),144.9662859368571,-37.81550482035507
8-Spring St/Collins St (Melbourne City),144.9734880768056,-37.81340287126446
10-Parliament Railway Station/Macarthur St (East Melbourne),144.97437403429137,-37.8121568214422
46-Rosamond Rd/Raleigh Rd (Maribyrnong),144.8867349237101,-37.76887383055635
48-Raleigh Rd/Wests Rd (Maribyrnong),144.88281884922267,-37.7696238010488
49-Highpoint Shopping Centre/Wests Rd (Maribyrnong),144.88218704574754,-37.77309087113936
50-Wests Rd/Williamson Rd (Maribyrnong),144.88214888276087,-37.775198851133936
51-Williamson Rd/Rosamond Rd (Maidstone),144.88557680449892,-37.776026851070135
52-Rosamond Rd/River St (Maribyrnong),144.88575608437102,-37.77931887126305
53-Maribyrnong College/River St (Maribyrnong),144.8877918887594,-37.77958086136979
54-Gordon St/River St (Maribyrnong),144.89093685289532,-37.779988831642754
55-Lyric St/Gordon St (Maribyrnong),144.89115681521614,-37.78222785197161
56-Edgewater Square/Gordon St (Maribyrnong),144.89060493982552,-37.784884832257724
57-Titch St/Gordon St (Footscray),144.88992993624578,-37.78863081219414
58-Ballarat Rd/Gordon St (Footscray),144.88955985272767,-37.7904628521461
59-Droop St/Ballarat Rd (Footscray),144.89357708124464,-37.79257083315165
60-Tiernan St/Droop St (Footscray),144.8955217927653,-37.794876813892046
61-Geelong Rd/Droop St (Footscray),144.89713710576382,-37.79677986462574
62-Nicholson St/Hopkins St (Footscray),144.89974205454848,-37.79982780603377
63-Footscray Market/Leeds St (Footscray),144.90106397086032,-37.800067836565084
64-Footscray Station/Leeds St (Footscray),144.90092609260049,-37.80135384626467
40-Epsom Rd/Maribyrnong Rd (Moonee Ponds),144.90512697906297,-37.77041886216501
39-Bowen St/Maribyrnong Rd (Moonee Ponds),144.9090088538936,-37.77084879264197
38-Hotham St/Maribyrnong Rd (Moonee Ponds),144.91233596989133,-37.771222832980385
37-Union Rd/Maribyrnong Rd (Moonee Ponds),144.9160029259576,-37.77163080327798
36-86 Maribyrnong Rd (Moonee Ponds),144.91830080374717,-37.7718778534261
35-Moore St/Maribyrnong Rd (Moonee Ponds),144.92114084246788,-37.77219879359891
34-Ascot Vale Rd/Maribyrnong Rd (Moonee Ponds),144.92371088321022,-37.772460873839904
33-Chaucer St/Ascot Vale Rd (Moonee Ponds),144.9242901218431,-37.770037804091245
49-Central Park Ave/Cordite Ave (Maribyrnong),144.8779829759559,-37.76884287155146
36-St Leonards Rd/Union Rd (Ascot Vale),144.9159489243419,-37.773557792977215
35-Bloomfield Rd/Union Rd (Ascot Vale),144.91556588242088,-37.77587583263032
34-Burrowes St/Union Rd (Ascot Vale),144.9152310798961,-37.77851985228244
33-Melbourne Showgrounds/Union Rd (Ascot Vale),144.9147929578791,-37.78034181209931
32-Sandown Rd/Epsom Rd (Ascot Vale),144.91671787723467,-37.78257381143759
31-Racing Victoria/161 Epsom Rd (Ascot Vale),144.91813087776492,-37.7840048108514
30-Flemington Racecourse/Epsom Rd (Ascot Vale),144.91999280247384,-37.78602981027741
29-Flemington Racecourse/Racecourse Rd (Flemington),144.92201205018367,-37.78733580170976
28-Smithfield Rd/Racecourse Rd (Flemington),144.92495613666276,-37.78761282360883
26-Newmarket Plaza/Racecourse Rd (Flemington),144.9281601432294,-37.787957795664276
25-Wellington St/Racecourse Rd (Flemington),144.9312410289976,-37.788227797622866
24-Victoria St/Racecourse Rd (Flemington),144.93349607292782,-37.78842984904864
23-Stubbs St/Racecourse Rd (Flemington),144.93658703512605,-37.78875484000977
22-Boundary Rd/Racecourse Rd (North Melbourne),144.93985799455965,-37.7891178100294
20-Melrose St/Flemington Rd (North Melbourne),144.94349111274957,-37.790380870050484
19-Abbotsford St Interchange/Abbotsford St (North Melbourne),144.94710190758795,-37.794092830061395
11-Albert St/Gisborne St (East Melbourne),144.97561207168297,-37.8096818217924
10-Nicholson St/Victoria Pde (East Melbourne),144.9735679936113,-37.8080058413593
9-La Trobe St/Victoria St (Melbourne City),144.97097779565027,-37.807600840690334
18-Church St/Bridge Rd (Richmond),144.9994289433597,-37.81860487408398
8-Exhibition St/La Trobe St (Melbourne City),144.96903307818343,-37.80808981021469
6-Swanston St/La Trobe St (Melbourne City),144.96408704540346,-37.80953682943628
5-Elizabeth St/La Trobe St (Melbourne City),144.96160196452496,-37.81027779962981
4-Queen St/La Trobe St (Melbourne City),144.95912804232498,-37.81099185978902
3-William St/La Trobe St (Melbourne City),144.95672395897103,-37.811697819915366
1-Spencer St/La Trobe St (Melbourne City),144.95176602832393,-37.81309885008259
D10-New Quay Prom/Docklands Dr (Docklands),144.94051388665542,-37.8137678189135
D11-Waterfront City/Docklands Dr (Docklands),144.93875997069816,-37.8143318486347
D10-NewQuay Prom/Docklands Dr (Docklands),144.94151504467263,-37.813298829075315
D1-Stadium Precinct/La Trobe St (Docklands),144.94640995029738,-37.814564859636235
119-Spencer St/La Trobe St (Melbourne City),144.9512069469421,-37.81319785009304
2-King St/La Trobe St (Melbourne City),144.95373811325365,-37.81246687002762
3-William St/La Trobe St (Melbourne City),144.9561418380174,-37.811777829936304
4-Queen St/La Trobe St (Melbourne City),144.95871800180885,-37.81104783980747
5-Elizabeth St/La Trobe St (Melbourne City),144.96112280409906,-37.810341879655546
6-Swanston St/La Trobe St (Melbourne City),144.96347108512063,-37.80963384947673
7-Russell St/La Trobe St (Melbourne City),144.96610412307587,-37.808895849568906
8-Exhibition St/La Trobe St (Melbourne City),144.96854311882217,-37.8081718000971
9-Victoria St/La Trobe St (Melbourne City),144.97027183632594,-37.807642870508104
10-Nicholson St/Victoria Pde (Carlton),144.9728458341813,-37.80782287117665
12-St Vincents Plaza/Victoria Pde (Fitzroy),144.976458070752,-37.80821788207826
D2-Central Pier/Harbour Esp (Docklands),144.94490695405742,-37.81469184942937
D3-Stadium Precinct/Harbour Esp (Docklands),144.9462519080672,-37.81780584960133
D4-Docklands Park/Harbour Esp (Docklands),144.94761594363382,-37.821452829786345
D5-South Wharf/Wurundjeri Way (Docklands),144.9512188225353,-37.82182183018542
D6-Flinders Street West/Flinders St (Docklands),144.9536139076518,-37.821457870318916
18-Chapman St/Abbotsford St (North Melbourne),144.9469528664174,-37.794946840060334
17-Molesworth St/Abbotsford St (North Melbourne),144.94670014457068,-37.796293870059095
16-Haines St/Abbotsford St (North Melbourne),144.94634986185886,-37.798270810058206
15-Arden St/Abbotsford St (North Melbourne),144.94585485760805,-37.80098386002498
14-Queensberry St/Abbotsford St (North Melbourne),144.94563381505486,-37.80237687997326
23-Royal Park/Royal Park (Parkville),144.94940303129144,-37.79136682007235
24-Elliott Ave/Royal Park (Parkville),144.94975691589403,-37.78800280008449
25-State Netball Hockey Centre/Royal Park (Parkville),144.94885403944454,-37.78452582996256
26-Melbourne Zoo/Royal Park (Parkville),144.94922483701083,-37.78260387945588
27-Royal Park Station/Royal Park (Parkville),144.9513661105664,-37.78073979893843
28-Park St/Royal Park (Parkville),144.9499750707508,-37.77722781808098
29-Brunswick Rd/Grantham St (Brunswick West),144.94892098773263,-37.775524837546065
30-Union Square Shopping Centre/Grantham St (Brunswick West),144.94953082437084,-37.77235386676427
31-Grantham St/Dawson St (Brunswick West),144.94953802151045,-37.77003780615508
32-Foden St/Dawson St (Brunswick),144.94738809745616,-37.76977581577248
33-South Daly St/Dawson St (Brunswick West),144.94417509159285,-37.76938584520886
34-Smith St/Melville Rd (Brunswick),144.94332512435955,-37.76729784437609
35-Victoria St/Melville Rd (Brunswick West),144.9438960770627,-37.76469486352563
36-Hope St/Melville Rd (Brunswick West),144.94438998898642,-37.76202681262145
37-Albion St/Melville Rd (Brunswick West),144.94499693771593,-37.75854984140796
38-Jacobs Reserve/Melville Rd (Brunswick West),144.94539077100714,-37.75660980071626
39-Mattingley Cres/Melville Rd (Brunswick West),144.9457140456637,-37.754786850141734
40-Moreland Rd/Melville Rd (Brunswick West),144.9459070094238,-37.75314984025278
41-Woodlands Ave/Melville Rd (Pascoe Vale South),144.9465578982979,-37.74930387044911
42-Reynard St/Melville Rd (Pascoe Vale South),144.94456206698547,-37.746385800912556
43-Princes Tce/Melville Rd (Pascoe Vale South),144.94500487257991,-37.743914851053354
44-Brearley Pde/Melville Rd (Pascoe Vale South),144.94540987805283,-37.74157881115307
45-Bell St/Melville Rd (Pascoe Vale South),144.94559780160284,-37.74010380121625
3-Market St/Flinders St (Melbourne City),144.96180284769852,-37.81904983054017
4-Elizabeth St/Flinders St (Melbourne City),144.96463209550512,-37.818224800536896
5-Swanston St/Flinders St (Melbourne City),144.96713805254498,-37.81754683069279
6-Russell St/Flinders St (Melbourne City),144.97050584530072,-37.816550800979506
8-Spring St/Flinders St (Melbourne City),144.9746181147463,-37.81530583140675
9-Lansdowne St/Wellington Pde (East Melbourne),144.97716978801964,-37.815439841739526
10-Jolimont Rd/Wellington Pde (East Melbourne),144.97979706144233,-37.81573684207645
11-Jolimont Station-MCG/Wellington Pde (East Melbourne),144.98482482139508,-37.816327873293154
13-Simpson St/Wellington Pde (East Melbourne),144.98698878152018,-37.81652686380229
14-Punt Rd/Wellington Pde (Melbourne City),144.9896808624863,-37.81737484430802
14-Punt Rd/Bridge Rd (Richmond),144.9902230226439,-37.81751983440456
13-Simpson St/Wellington Pde (East Melbourne),144.98697582160722,-37.81658986379117
11-Jolimont Station-MCG/Wellington Pde (East Melbourne),144.98399790132024,-37.81623283309581
10-Jolimont Rd/Wellington Pde (East Melbourne),144.97933086267903,-37.81575583201814
9-Lansdowne St/Wellington Pde (Melbourne City),144.97667010936092,-37.81545784167614
8-Spring St/Flinders St (Melbourne City),144.9741799959878,-37.815523811361395
7B-Rod Laver Arena/MCG Gates 1-3 (Melbourne City),144.97913610788348,-37.81957381202643
7C-MCG Gates 4-7/John Cain Arena (Melbourne City),144.98353602982135,-37.82237083259089
7D-Olympic Boulevard (Melbourne City),144.98686279191597,-37.824121872826716
7D-Olympic Boulevard (Melbourne City),144.98675695150476,-37.8238138028534
7C-MCG Gates 4-7/John Cain Arena (Melbourne City),144.98280378954595,-37.822123872503425
7B-Rod Laver Arena/MCG Gates 1-3 (Melbourne City),144.97842690895905,-37.81933585195756
6-Russell St/Flinders St (Melbourne City),144.97017392607253,-37.81664386094824
5-Swanston St/Flinders St (Melbourne City),144.9664968937751,-37.817742850645665
4-Elizabeth St/Flinders St (Melbourne City),144.96428613442842,-37.8183988605486
3-Market St/Flinders St (Melbourne City),144.96128480622215,-37.819292830545336
D6-Victoria Police Centre/Flinders St (Southbank),144.95322078674928,-37.82171284030335
D5-South Wharf/Wurundjeri Way (Docklands),144.95091894190202,-37.82198788016846
D4-Docklands Park/Harbour Esp (Docklands),144.9475068636939,-37.8217118497713
D3-Stadium Precinct/Harbour Esp (Docklands),144.945966068945,-37.81744980956216
D2-CentralPier/Harbour Esp (Docklands),144.94458979566775,-37.814235819407486
125-Clarendon St/Whiteman St (Southbank),144.95669011166754,-37.825674820737724
124A-Casino/MCEC/Clarendon St (Southbank),144.956062991881,-37.82327587055365
124-Batman Park/Spencer St (Melbourne City),144.95527099113656,-37.82154085041741
122-Southern Cross Railway Station/Spencer St (Melbourne City),144.95409810961937,-37.81875382025247
120-Lonsdale St/Spencer St (Melbourne City),144.95238702615683,-37.81529980012705
119-La Trobe St/Spencer St (Melbourne City),144.95150790716764,-37.81339180009197
120-Lonsdale St/Spencer St (Melbourne City),144.95231682609315,-37.81494682011984
122-Southern Cross Railway Station/Spencer St (Melbourne City),144.9537240688651,-37.81830580022585
124-Batman Park/Spencer St (Melbourne City),144.95541211133153,-37.82175982043574
124A-Casino/MCEC/Clarendon St (Southbank),144.95631607220463,-37.82357782058857
5-Bourke St/William St (Melbourne City),144.9582561217227,-37.81586086018487
64-Power St/Glenferrie Rd (Kooyong),145.03197292497134,-37.84182686079176
65-Warra St/Glenferrie Rd (Toorak),145.0321460868553,-37.84002785064493
65-Kooyong Railway Station/Glenferrie Rd (Kooyong),145.03243696751466,-37.83931982062053
66-Kooyong Tennis Centre/Glenferrie Rd (Toorak),145.03235704862993,-37.838480840549586
66-Vision Australia/Glenferrie Rd (Kooyong),145.0326230887538,-37.8383228905805
67-Gardiner Rd/Glenferrie Rd (Hawthorn),145.0329460127637,-37.83554387049845
67-Gardiner Rd/Glenferrie Rd (Hawthorn),145.0330968530305,-37.83543785053617
68-Callantina Rd/Glenferrie Rd (Hawthorn),145.03330997643437,-37.833413840531
7-Flagstaff Railway Station/William St (Melbourne City),144.9565230785636,-37.81198284993842
8-Franklin St/William St (Melbourne City),144.95545999835701,-37.80972987984852
10-Victoria St/Peel St (West Melbourne),144.9560349210069,-37.80537783957497
10-Victoria St/Peel St (West Melbourne),144.95608280082755,-37.80568482958863
9-Queen Victoria Market/Peel St (North Melbourne),144.95578507998246,-37.80742884970789
9-Queen Victoria Market/39 Peel St (North Melbourne),144.9557570001153,-37.807202859697384
8-Franklin St/Peel St (Melbourne City),144.9554797985925,-37.8094148798312
7-Flagstaff Railway Station/William St (Melbourne City),144.95680495893518,-37.81244787996076
5-Bourke St/William St (Melbourne City),144.95816612180445,-37.81542688015352
4-Collins St/William St (Melbourne City),144.95909780265188,-37.81744387031627
1-Flinders St/Queens Bridge St (Melbourne City),144.96124592591585,-37.81949983056408
115-Casino/Southbank/Queens Bridge St (Southbank),144.961230803174,-37.822103800817445
117-York St/Kings Way (South Melbourne),144.96408091919204,-37.82959684191521
118-Sturt St/Kings Way (Southbank),144.9650100806493,-37.83052285208096
119-Wells St/Park St (South Melbourne),144.96982184280938,-37.832786801954796
119-Wells St/Park St (South Melbourne),144.96980780289792,-37.8328768019506
118-Sturt St/Kings Way (Southbank),144.96538088140292,-37.831060872073905
117-York St/Kings Way (South Melbourne),144.96391207901715,-37.82955787188875
20-Kings Way/Sturt St (Southbank),144.96533984002622,-37.83007780208491
19-Miles St/Sturt St (Southbank),144.96576104190808,-37.82841784189203
18-Grant St/Sturt St (Southbank),144.96663980462208,-37.825765811596604
17-Arts Precinct/Sturt St (Southbank),144.9672618861019,-37.823802821402204
17-Arts Precinct/Sturt St (Southbank),144.96718592590736,-37.824080831429185
18-Grant St/Sturt St (Southbank),144.96667004444117,-37.82591080161464
19-Miles St/Sturt St (Southbank),144.96606308213566,-37.828170881866754
20-Kings Way/Sturt St (Southbank),144.96539600006818,-37.830105882084766
116-City Rd/Kings Way (Southbank),144.96058279779092,-37.82624686115709
24-Grattan St/Church St (Hawthorn),145.01861296039627,-37.81789288688768
25-Brook St/Church St (Hawthorn),145.02060807352342,-37.81590784874848
26-Barkers Rd/Church St (Hawthorn),145.02325803072895,-37.813239890677416
34-Pakington St/High St (Kew),145.03384276266192,-37.80560384176302
35-Cobden St/High St (Kew),145.03555204105425,-37.80497384172536
36-Parkhill Rd/High St (Kew),145.03976079535425,-37.803475881478626
37-Kew Cemetery/High St (Kew),145.04256987394564,-37.8024598713753
38-Victoria Park/High St (Kew),145.0459869913066,-37.80124586134036
39-Harp Rd/High St (Kew),145.0504419868823,-37.7993998713232
40-Harp Village/High St (Kew East),145.0520299460085,-37.798614891313626
41-Clyde St/High St (Kew East),145.05476378378376,-37.79742581139146
42-Irymple Ave/High St (Kew East),145.05716498909183,-37.796383881281756
43-Kew High School/High St (Kew East),145.06109475746302,-37.79463689125253
44-Burke Rd/High St (Kew),145.06366804171964,-37.79351684137536
45-Burke Rd/Doncaster Rd (Balwyn North),145.06522180393512,-37.793154861526496
46-Wattle Ave/Doncaster Rd (Balwyn North),145.06745596692767,-37.79282186178764
47-North Balwyn Shopping Centre/Doncaster Rd (Balwyn North),145.0714458511624,-37.79269883239753
48-Sunburst Ave/Doncaster Rd (Balwyn North),145.0742718532377,-37.79320382292474
49-Cityview Rd/Doncaster Rd (Balwyn North),145.07747189537014,-37.79374283349546
50-Hill Rd/Doncaster Rd (Balwyn North),145.0811950175449,-37.794245844136285
36-St Kilda Primary School/Brighton Rd (Elwood),144.98835103344345,-37.87010683626159
38-Wimbledon Ave/Brighton Rd (Elwood),144.9900840772114,-37.87286785705201
39-Glen Eira Rd/Brighton Rd (Elwood),144.9920241186845,-37.87594684796246
40-Scott St/Brighton Rd (Elwood),144.99389791062393,-37.878933858224876
41-Coleridge St/Brighton Rd (Elwood),144.99508590546804,-37.88082880829076
42-Hotham St/Brighton Rd (St Kilda East),144.99634985814257,-37.88285083841377
43-Brighton Rd/Glenhuntly Rd (Elsternwick),144.99758393404386,-37.88389087854839
44-Elsternwick Railway Station/Glenhuntly Rd (Elsternwick),145.0005629297441,-37.88429281889823
45-Elsternwick Shopping Centre/Glenhuntly Rd (Elsternwick),145.0039508854195,-37.88473786929948
46-Orrong Rd/Glenhuntly Rd (Elsternwick),145.00621708284504,-37.88503783956981
47-Shoobra Rd/Glenhuntly Rd (Elsternwick),145.00911903992892,-37.8853748899181
48-Parkside St/Glenhuntly Rd (Elsternwick),145.01224708469354,-37.88574281002662
49-Kooyong Rd/Glenhuntly Rd (Elsternwick),145.0150918118983,-37.886088860028025
50-Royal Pde/Glenhuntly Rd (Caulfield),145.01826486009816,-37.886484860028645
51-Hawthorn Rd/Glenhuntly Rd (Caulfield),145.02218707046006,-37.886964830028006
52-Jasmine St/Glenhuntly Rd (Caulfield),145.02414691573327,-37.887204860027104
53-Glenhuntly Tram Depot/Glenhuntly Rd (Caulfield),145.02711583149818,-37.88759789012074
54-Bambra Rd/Glenhuntly Rd (Caulfield),145.02890610561195,-37.88782586018548
55-Fallon St/Glenhuntly Rd (Caulfield),145.03099193840765,-37.888094870243016
56-Kean St/Glenhuntly Rd (Caulfield),145.03343884948728,-37.888405820286806
57-Laura St/Glenhuntly Rd (Caulfield),145.03549084163876,-37.88865683030529
58-Booran Rd/Glenhuntly Rd (Caulfield),145.03781391231712,-37.8889478903035
60-Glenhuntly Shops/Glenhuntly Rd (Glen Huntly),145.0407727438724,-37.88929484025167
61-Glenhuntly Railway Station/Glenhuntly Rd (Glen Huntly),145.04275598577226,-37.889534870174394
62-Grange Rd/Glenhuntly Rd (Glen Huntly),145.04504594816106,-37.889824850103764
63-Maroona Rd/Glenhuntly Rd (Carnegie),145.0476638718113,-37.89012986008404
64-Mernda Ave/Glenhuntly Rd (Carnegie),145.04990883553418,-37.89039284011165
65-Mimosa Rd/Glenhuntly Rd (Carnegie),145.0521980793816,-37.89070082015747
66-Glenhuntly Rd/Truganini Rd (Carnegie),145.0540538826403,-37.8910558702209
67-Centre Rd/Truganini Rd (Carnegie),145.05437500531391,-37.89268388047123
68-Carnegie/Truganini Rd (Carnegie),145.0558110487415,-37.89385181080126
68-East Brighton/Hawthorn Rd (Brighton East),145.0168957696267,-37.91420882118592
67-Howell St/Hawthorn Rd (Brighton East),145.017400849601,-37.91108087086543
66-Union St/Hawthorn Rd (Brighton East),145.01777092992074,-37.90871684058544
65-Davey Ave/Hawthorn Rd (Brighton East),145.01814677050635,-37.90656089030414
64-Taylor St/Hawthorn Rd (Brighton East),145.0186010920664,-37.90408085007745
63-North Rd/Hawthorn Rd (Brighton East),145.01907809487255,-37.901556890068555
62-Gardenvale Rd/Hawthorn Rd (Caulfield South),145.01953097746377,-37.899482840061204
61-Raynes St/Hawthorn Rd (Caulfield South),145.0200727810928,-37.89668888005158
60-Dover St/Hawthorn Rd (Caulfield South),145.02037806333234,-37.89504485004589
59-Princes Park/Hawthorn Rd (Caulfield South),145.02069090596441,-37.8931218200396
58-Sycamore St/Hawthorn Rd (Caulfield South),145.02133387081608,-37.88992484002908
57-Glenhuntly Rd/Hawthorn Rd (Caulfield South),145.02185406969897,-37.88706788002813
56-Lockhart St/Hawthorn Rd (Caulfield),145.02235302866438,-37.88457083002832
55-Sylverly Gr/Hawthorn Rd (Caulfield),145.02272490764756,-37.882566890029175
54-Glen Eira Rd/Hawthorn Rd (Caulfield),145.02321090633131,-37.88011484003112
53-Crotonhurst Ave/Hawthorn Rd (Caulfield North),145.02372498471652,-37.87747487003428
52-Halstead St/Hawthorn Rd (Caulfield North),145.02415986320324,-37.87523783003782
51-Balaclava Rd/Hawthorn Rd (Caulfield North),145.02460986033606,-37.87287487975521
50-Inkerman Rd/Hawthorn Rd (Caulfield North),145.02519485585506,-37.8696858193846
49-Wanda Rd/Hawthorn Rd (Caulfield North),145.02552497340136,-37.8679788792247
48A-Dandenong Rd/Hawthorn Rd (Caulfield North),145.02590981040407,-37.865885839012776
44-Bailey Ave/Dandenong Rd (Armadale),145.02368284658743,-37.86460486855949
43-Matlock Ct/Dandenong Rd (Armadale),145.02191884468152,-37.863808818282635
42-Kooyong Rd/Dandenong Rd (Armadale),145.0188397622351,-37.86249580776008
41-Cantala Ave/Dandenong Rd (Armadale),145.0176488815231,-37.86195283753419
40-Wattletree Rd/Dandenong Rd (Armadale),145.01470192050758,-37.86079480697087
38-Orrong Rd/Dandenong Rd (Armadale),145.01083984036836,-37.860287836397234
37-Lansdowne Rd/Dandenong Rd (Prahran),145.0072837606147,-37.85981380549442
36-Alexandra St/Dandenong Rd (Prahran),145.00430476150333,-37.85941186471755
35-Williams Rd/Dandenong Rd (Prahran),145.00165480263607,-37.85905987404464
34-Westbury St/Dandenong Rd (St Kilda East),144.9975439651164,-37.858494853036724
33-Hornby St/Dandenong Rd (Windsor),144.9957540463892,-37.858265802609175
32-Chapel St/Dandenong Rd (Windsor),144.99169685665385,-37.857412873083256
115-Casino East/Queens Bridge St (Southbank),144.961230803596,-37.82169781077784
64-Darling Rd/Waverley Rd (Malvern East),145.0587709760498,-37.8772558101837
63-Hughes St/Waverley Rd (Malvern East),145.05691085553988,-37.87708985009453
62-Macgregor St/Waverley Rd (Malvern East),145.05500681511404,-37.87685981001437
61-Tennyson St/Waverley Rd (Malvern East),145.0510860601847,-37.876362830946
60-Burke Rd/Waverley Rd (Malvern East),145.04833206414997,-37.87603784163831
59-Dandenong Rd/Waverley Rd (Caulfield East),145.0450747887788,-37.87583084246728
57-Caulfield Railway Station/Derby Rd (Caulfield East),145.04194495080947,-37.87639082311646
56-Caulfield Racecourse/Normanby Rd (Caulfield East),145.0391077964117,-37.875343853618396
55-Balaclava Rd/Normanby Rd (Caulfield East),145.03814083609603,-37.874480843334545
54-Kambrook Rd/Balaclava Rd (Caulfield East),145.03613779369755,-37.87413182274572
53-Caulfield Park/Balaclava Rd (Caulfield North),145.0320471090196,-37.87363088161698
52-Caulfield Park Bowling Club/Balaclava Rd (Caulfield North),145.02815010443092,-37.873123820566995
51-Hawthorn Rd/Balaclava Rd (Caulfield North),145.0249529406967,-37.87278181975019
1-Flinders St/Queens Bridge St (Melbourne City),144.961112005692,-37.81941586055062
2-Flinders Lane/Market St (Melbourne City),144.9607041256236,-37.81852585045194
3-William St/Flinders Lane (Melbourne City),144.9597818033094,-37.81862683043155
47-Caulfield Junior College/Balaclava Rd (Caulfield North),145.02118085449644,-37.872285829587035
4-Collins St/William St (Melbourne City),144.9591788025515,-37.817805850346815
50-Wharton St/Whitehorse Rd (Surrey Hills),145.0913819372456,-37.8140928279263
22-Dorcas St/Eastern Rd (South Melbourne),144.96496292303422,-37.83221683206168
23-Moray St/Park St (South Melbourne),144.9638559252068,-37.83445882190112
24-Clarendon St/Park St (South Melbourne),144.96131396404084,-37.83518980156996
25-Cecil St/Park St (South Melbourne),144.9589178033067,-37.83593284126022
41-Maribyrnong Park/Maribyrnong Rd (Ascot Vale),144.90257709634366,-37.77028386182279
42-Clyde St/Raleigh Rd (Maribyrnong),144.89909301173603,-37.76981586133901
43-Van Ness Ave/Raleigh Rd (Maribyrnong),144.89612804726283,-37.769492850961804
44-Warrs Rd/Raleigh Rd (Maribyrnong),144.89219000184903,-37.7690438404611
45-Maribyrnong Community Centre/Raleigh Rd (Maribyrnong),144.88955407974785,-37.76872587023466
46-Rosamond Rd/Raleigh Rd (Maribyrnong),144.887162963122,-37.76898984051028
48-Wests Rd/Raleigh Rd (Maribyrnong),144.883325008507,-37.769389800974515
49-Highpoint Shopping Centre/Wests Rd (Maribyrnong),144.88227200547706,-37.77327285113317
50-Williamson Rd/Wests Rd (Maribyrnong),144.88199804309548,-37.774916791140626
51-Williamson Rd/Rosamond Rd (Maidstone),144.88564880452856,-37.77627984108346
52-River St/Rosamond Rd (Maribyrnong),144.88521212348317,-37.77848880119969
53-Maribyrnong College/River St (Maribyrnong),144.88810004938864,-37.77953181137864
54-Gordon St/River St (Maribyrnong),144.89124609237658,-37.77990387167091
55-Lyric St/Gordon St (Maribyrnong),144.8913540946878,-37.782104821980354
56-Edgewater Square/Gordon St (Maribyrnong),144.89087889851484,-37.78443087223187
57-Titch St/Gordon St (Footscray),144.8900739360814,-37.788786872218665
58-Ballarat Rd/Gordon St (Footscray),144.88972905307756,-37.790537822170585
59-Droop St/Ballarat Rd (Footscray),144.8935169617853,-37.79229984311835
60-Tiernan St/Droop St (Footscray),144.89549479321374,-37.79460582385687
61-Geelong Rd/Droop St (Footscray),144.89676990766046,-37.79612484442226
62-Nicholson St/Droop St (Footscray),144.899418056195,-37.799262875812005
63-Leeds St/Hopkins St (Footscray),144.90092285135333,-37.79983986649665
33-Chaucer St/Ascot Vale Rd (Moonee Ponds),144.9244488818154,-37.77003987409285
131-Rennie St/Nicholson St (Coburg),144.97651098386723,-37.75132680574016
132-Crozier St/Nicholson St (Coburg),144.97684686598026,-37.74940485553049
133-Harding St/Nicholson St (Coburg),144.9773159494954,-37.74635781517828
7-RMIT University/Swanston St (Melbourne City),144.96287384100484,-37.807785879290144
4-Queensberry St/Swanston St (Carlton),144.96311791560055,-37.8051218789611
3-Lincoln Square/Swanston St (Carlton),144.96356106973263,-37.80261582861868
1-Melbourne University/Swanston St (Carlton),144.96424686226237,-37.798752848365524
34-Inkerman St/St Kilda Rd (St Kilda),144.98590698997637,-37.86509986540059
34-Inkerman St/St Kilda Rd (St Kilda),144.98545806971498,-37.864055865294986
15-Murphy St/Flemington Rd (North Melbourne),144.95240001598737,-37.79757384979422
33-Argyle St/St Kilda Rd (St Kilda),144.98489898937913,-37.86246988515925
33-Argyle St/St Kilda Rd (St Kilda),144.984897909025,-37.86207280510462
32-Alma Rd/St Kilda Rd (St Kilda),144.98405910948313,-37.859931885019115
32-Alma Rd/St Kilda Rd (St Kilda),144.98451882899016,-37.8609668850399
31-Barkly St/St Kilda Rd (St Kilda),144.98336179302052,-37.85795485463443
31-Barkly St/St Kilda Rd (St Kilda),144.9835929122566,-37.8582478046724
15-Epworth Hospital/Bridge Rd (Richmond),144.99381402288884,-37.817895855118365
17-Bosisto St/Bridge Rd (Richmond),144.99650502331315,-37.81834783487795
18-Church St/Bridge Rd (Richmond),144.99879678327702,-37.81845880427557
19-Richmond Town Hall/Bridge Rd (Richmond),145.0013797832778,-37.818736813571
20-Coppin St/Bridge Rd (Richmond),145.0035768631578,-37.818963882984974
21-Burnley St/Bridge Rd (Richmond),145.00887894244445,-37.819521881611315
22-Yarra Bvd/Bridge Rd (Richmond),145.01397581277874,-37.820085823583284
22-Yarra Bvd/Bridge Rd (Richmond),145.0134070141249,-37.82013883324268
21-Burnley St/Bridge Rd (Richmond),145.00777806264406,-37.819466801882875
20-Coppin St/Bridge Rd (Richmond),145.00398294315085,-37.81906981286614
19-Richmond Town Hall/Bridge Rd (Richmond),145.0013779833209,-37.81879981355832
17-Waltham St/Bridge Rd (Richmond),144.99664506313852,-37.81820581487918
125A-Southbank Tram Depot/Light Rail (South Melbourne),144.95371506594026,-37.82767786052028
126-Montague St/Light Rail (South Melbourne),144.94877190078162,-37.83017787993923
127-North Port Station/Light Rail (Port Melbourne),144.9433420228911,-37.83341787941667
128-Graham St/Light Rail (Port Melbourne),144.93746897457189,-37.837018869207746
129-Beacon Cove/Light Rail (Port Melbourne),144.93281884838657,-37.84077582912607
13-Lansdowne St/Victoria Pde (East Melbourne),144.97881210808094,-37.80853783263236
15-Smith St/Victoria Pde (East Melbourne),144.98222094657055,-37.808911873354596
16-Wellington St/Victoria Pde (East Melbourne),144.98574390646633,-37.80927880408775
18-Hoddle St/Victoria Pde (Collingwood),144.99042102620103,-37.80978181509709
19-North Richmond Railway Station/Victoria St (Richmond),144.9925569063731,-37.80977281557537
20-Lennox St/Victoria St (Richmond),144.99620406465377,-37.81015981584608
15-Epworth Hospital/Bridge Rd (Richmond),144.993582903059,-37.81800988503972
22-McKay St/Victoria St (Richmond),145.00423601667282,-37.810962883890895
23-Leslie St/Victoria St (Richmond),145.0076228944242,-37.811299843025694
24-Burnley St/Victoria St (Richmond),145.01012777296594,-37.811495862483255
25-River Bvd/Victoria St (Richmond),145.01291380992703,-37.81181284415996
27-Findon St/Barkers Rd (Hawthorn),145.02078087663253,-37.81286485906822
29-Barkers Rd/High St (Kew),145.02377679065495,-37.81295081098465
31-Stevenson St/High St (Kew),145.02651207850943,-37.81006784171052
32-Kew Junction/High St (Kew),145.0291498047857,-37.80741788167158
34-High St/Cotham Rd (Kew),145.0313080030659,-37.80697589184585
35-Charles St/Cotham Rd (Kew),145.03555491581753,-37.807461892509956
36-Glenferrie Rd/Cotham Rd (Kew),145.03826103156754,-37.80778589297943
37-Belmont Ave/Cotham Rd (Kew),145.04277902904008,-37.80830285359357
38-Marshall Ave/Cotham Rd (Kew),145.04617706949767,-37.808692823937164
39-Thomas St/Cotham Rd (Kew),145.04975475047922,-37.80910286427342
40-St George's Hospital/Cotham Rd (Kew),145.05306099186936,-37.80950984456908
41-Kew Traffic School/Cotham Rd (Kew),145.05788499633505,-37.81008485477166
34-Kooyongkoot Rd/Riversdale Rd (Hawthorn),145.03864591351186,-37.829294813302646
35-Robinson Rd/Riversdale Rd (Hawthorn),145.0415338365686,-37.82964887415774
36-Auburn Rd/Riversdale Rd (Hawthorn East),145.04378707485546,-37.82992985444756
37-Tooronga Rd/Riversdale Rd (Hawthorn East),145.04785506926632,-37.8303668949599
38-Hastings Rd/Riversdale Rd (Hawthorn East),145.05162606449122,-37.83082589544436
39-Camberwell Tram Depot/Riversdale Rd (Hawthorn East),145.05479802115076,-37.83120281587389
40-Camberwell Junction/Riversdale Rd (Camberwell),145.05715385799277,-37.831475875043715
42-Fermanagh Rd/Riversdale Rd (Camberwell),145.0601900938365,-37.831814813847
43-Trafalgar Rd/Riversdale Rd (Camberwell),145.06386100885064,-37.83223484242422
44-Derby St/Riversdale Rd (Camberwell),145.06606996587269,-37.83246983158215
46-Spencer Rd/Riversdale Rd (Camberwell),145.06987588077826,-37.83292883015288
47-Willow Gr/Riversdale Rd (Camberwell),145.0726737996961,-37.83326282189129
48-Cooloongatta Rd/Riversdale Rd (Camberwell),145.07725083779926,-37.83377987495651
49-Glyndon Rd/Riversdale Rd (Camberwell),145.0796520366173,-37.8340708465644
50-Wattle Valley Rd/Riversdale Rd (Canterbury),145.0815218756256,-37.83428189781651
51-Highfield Rd/Riversdale Rd (Camberwell),145.08515103380702,-37.83452085015458
52-Lockhart St/Riversdale Rd (Camberwell),145.08853899359582,-37.83490983026565
53-Essex Rd/Riversdale Rd (Camberwell),145.09097403341735,-37.83520188036134
54-Through Rd/Riversdale Rd (Camberwell),145.09380687323187,-37.83551787048758
55-Union Rd/Riversdale Rd (Canterbury),145.0958239530849,-37.835748900588264
56-Warrigal Rd/Riversdale Rd (Surrey Hills),145.09839507287762,-37.83605184073026
57-Glendale St/Riversdale Rd (Surrey Hills),145.1000258727163,-37.83625785082625
58-Wattle Park/1013 Riversdale Rd (Surrey Hills),145.10261607156667,-37.83674187055512
59-Alandale St/Riversdale Rd (Surrey Hills),145.10481387085304,-37.83698388030284
42-Burke Rd/Whitehorse Rd (Balwyn),145.06086291957166,-37.810430814810154
60-Ferndale St/Riversdale Rd (Surrey Hills),145.106694870254,-37.83719484008784
58-Box Hill Central/Whitehorse Rd (Box Hill),145.1223548617299,-37.81786284166785
57-Nelson Rd/Whitehorse Rd (Box Hill),145.11871994212217,-37.81740789157546
56-Elgar Rd/Whitehorse Rd (Box Hill),145.1144399041768,-37.8168708614384
55-Hood St/Whitehorse Rd (Mont Albert),145.10982976046245,-37.81632789050351
54-Inglisby Rd/Whitehorse Rd (Mont Albert),145.10276298785433,-37.81546685880835
53-Union Rd/Whitehorse Rd (Surrey Hills),145.09952407814106,-37.81509884805608
15-Murphy St/Flemington Rd (North Melbourne),144.9523910161274,-37.79747484979756
12-Flemington Rd/Peel St (North Melbourne),144.95673584149625,-37.801370859264985
12-Flemington Rd/Peel St (North Melbourne),144.95681108130097,-37.801534839266616
11-Queensberry St/Peel St (North Melbourne),144.95644712133478,-37.803609879434106
11-Queensberry St/Peel St (North Melbourne),144.9563988815135,-37.80329379941984
126-City Rd/Light Rail (South Melbourne),144.9544480263474,-37.82953780067265
126-City Rd/Light Rail (South Melbourne),144.95437782638862,-37.829175820650256
127-South Melbourne Station/Light Rail (South Melbourne),144.9554959943813,-37.833142840825715
127-South Melbourne Station/Light Rail (South Melbourne),144.9552951139052,-37.833021880799734
128-Albert Park Station/Light Rail (South Melbourne),144.95875509139182,-37.8402198112253
128-Albert Park Station/Light Rail (South Melbourne),144.9585768909978,-37.84006285120363
129-Melbourne Sports and Aquatic Centre/Light Rail (Middle Park),144.96167289987983,-37.84525387156177
129-Melbourne Sports and Aquatic Centre/Light Rail (Middle Park),144.96167793901355,-37.84546987156229
130-Middle Park Station/Light Rail (Middle Park),144.9656901196073,-37.84961284175109
130-Middle Park Station/Light Rail (Middle Park),144.96540679979333,-37.84957180174975
131-Fraser St/Light Rail (Middle Park),144.97103178808237,-37.85375086235739
131-Fraser St/Light Rail (Middle Park),144.97117290766747,-37.85396983240658
132-St Kilda Station/Fitzroy St (St Kilda),144.97764283307066,-37.85927182508279
132-St Kilda Station/Fitzroy St (St Kilda),144.97726303209208,-37.85903080489122
133-Canterbury Rd/Fitzroy St (St Kilda),144.9767781097534,-37.86016687504489
133-Canterbury Rd/Fitzroy St (St Kilda),144.97702291058306,-37.85991883509971
134-Park St/Fitzroy St (St Kilda),144.97526394507534,-37.8610698445747
134-Park St/Fitzroy St (St Kilda),144.97527906507923,-37.86094384457719
135-Acland St/Fitzroy St (St Kilda),144.97341893960416,-37.86203788400809
135-Jacka Bvd/Fitzroy St (St Kilda),144.97301105851344,-37.862400853887664
136-Alfred Square/The Esplanade (St Kilda),144.97349202140705,-37.86518383410367
136-Alfred Square/The Esplanade (St Kilda),144.97378506230302,-37.86527986419631
138-Luna Park/The Esplanade (St Kilda),144.9768411115383,-37.86697186516395
138-Luna Park/The Esplanade (St Kilda),144.97721587257521,-37.8669878852782
139-Belford St/Acland St (St Kilda),144.97995008008098,-37.86886384612253
139-Belford St/Acland St (St Kilda),144.98007680015334,-37.868793826137285
48-Hawthorn Rd/Dandenong Rd (Malvern),145.02644585091517,-37.865822839104624
48-Dandenong Rd/Glenferrie Rd (Malvern),145.02781601283627,-37.86604387939577
52-Dandenong Rd/Glenferrie Rd (Malvern),145.02781601283627,-37.86604387939577
53-Malvern Railway Station/Glenferrie Rd (Malvern),145.0277800115327,-37.86525088926716
53-Malvern Railway Station/Glenferrie Rd (Malvern),145.02816197025837,-37.86416683916737
54-Wattletree Rd/Glenferrie Rd (Malvern),145.02826384768744,-37.86246484891729
54-Wattletree Rd/Glenferrie Rd (Malvern),145.02851080748448,-37.86214480890612
55-Llaneast St/Glenferrie Rd (Malvern),145.02846976584163,-37.86113482873902
55-Edsall St/Glenferrie Rd (Malvern),145.0286767659212,-37.86102088875193
56-Malvern Tram Depot/Glenferrie Rd (Malvern),145.02883408484166,-37.85898688879918
56-Malvern Tram Depot/Glenferrie Rd (Malvern),145.02905404511063,-37.85882785885618
57-High St/Glenferrie Rd (Malvern),145.02918688575062,-37.8568118592447
57-High St/Glenferrie Rd (Malvern),145.02943492592348,-37.85648281932508
58-Bell St/Glenferrie Rd (Malvern),145.0295900863382,-37.854060829767306
58-Sorrett Ave/Glenferrie Rd (Malvern),145.02978304628377,-37.85408188977052
59-Malvern Rd/Glenferrie Rd (Malvern),145.02994504636595,-37.85182289016302
59-Malvern Rd/Glenferrie Rd (Malvern),145.03019200615188,-37.85151185021379
60-Stonnington Pl/Glenferrie Rd (Malvern),145.03036696588612,-37.84964885051686
60-Stonnington Pl/Glenferrie Rd (Malvern),145.03051384567823,-37.84966082050857
61-Moorakyne Ave/Glenferrie Rd (Malvern),145.0307370450633,-37.84769081080821
61-Moorakyne Ave/Glenferrie Rd (Malvern),145.03088392478492,-37.84772087079205
62-Mayfield Ave/Glenferrie Rd (Malvern),145.0311078438582,-37.845723861074866
62-Mayfield Ave/Glenferrie Rd (Malvern),145.0313339231897,-37.845348831104054
63-Toorak Rd/Glenferrie Rd (Malvern),145.03143976380045,-37.84392683102394
63-Toorak Rd/Glenferrie Rd (Kooyong),145.03166296359555,-37.843632890975464
64-Mernda Rd/Glenferrie Rd (Kooyong),145.0316719647783,-37.84246181085435
127-York St/Clarendon St (South Melbourne),144.95953195459919,-37.83096880135793
126-City Rd/Clarendon St (South Melbourne),144.9578748726058,-37.82720986095382
130a-Raglan St/Clarendon St (South Melbourne),144.96258800909632,-37.8376008117182
130-Clarendon St/Albert Rd (South Melbourne),144.9628770923525,-37.83950683174253
131-Melbourne Sports & Aquatic Centre/Albert Rd (Albert Park),144.96111705338612,-37.84067485151673
132-Kerferd Rd/Canterbury Rd (Albert Park),144.9593530558485,-37.84243786129134
133-Canterbury Rd/Mills St (Middle Park),144.9601378590455,-37.84405588138057
134-Carter St/Mills St (Middle Park),144.95888001851088,-37.84558381124817
135-Richardson St/Mills St (Middle Park),144.95740905285257,-37.84739686119229
136-Mills St/Danks St (Middle Park),144.95608280675756,-37.84972588126169
137-Harold St/Danks St (Middle Park),144.95918707843066,-37.85134786148454
143-Fitzroy St/Park St (St Kilda),144.97445898243456,-37.86097480431574
142-Mary St/Park St (St Kilda West),144.97319609826138,-37.85978086384775
141-Deakin St/Park St (St Kilda West),144.9707930970616,-37.85747785279721
68-Callantina Rd/Glenferrie Rd (Hawthorn),145.03350797706227,-37.83320981059956
69-South St/Glenferrie Rd (Hawthorn),145.0336710604883,-37.83137489063045
69-South St/Glenferrie Rd (Hawthorn),145.0338831014462,-37.83109886072553
70-Riversdale Rd/Glenferrie Rd (Hawthorn),145.03409982079987,-37.828885851097525
70-Riversdale Rd/Glenferrie Rd (Hawthorn),145.03433490058322,-37.82861882127919
71-Urquhart St/Glenferrie Rd (Hawthorn),145.0346189334252,-37.82602781202952
71-Urquhart St/Glenferrie Rd (Hawthorn),145.03484789366368,-37.8259598621491
72-Manningtree Rd/Glenferrie Rd (Hawthorn),145.0349760482938,-37.82414186262411
72-Manningtree Rd/Glenferrie Rd (Hawthorn),145.03519600823634,-37.82400983274691
73-Burwood Rd/Glenferrie Rd (Hawthorn),145.0352759242328,-37.82269583307549
73-Burwood Rd/Glenferrie Rd (Hawthorn),145.0354519637962,-37.822482893192934
74-Glenferrie Railway Station/Glenferrie Rd (Hawthorn),145.03567407778635,-37.82052188370826
74-Glenferrie Station/Glenferrie Rd (Hawthorn),145.03567407778635,-37.82052188370826
75-Chrystobel Cres/Glenferrie Rd (Hawthorn),145.03596783266948,-37.81886786416764
75-Liddiard St/Glenferrie Rd (Hawthorn),145.03622487193343,-37.818592824311615
76-Johnson St/Glenferrie Rd (Hawthorn),145.03631702614985,-37.816837824706305
76-Johnson St/Glenferrie Rd (Hawthorn),145.03659206597797,-37.81676087480535
77-Barkers Rd/Glenferrie Rd (Hawthorn),145.03672274034042,-37.81479887513765
77-Barkers Rd/Glenferrie Rd (Hawthorn),145.03693298069257,-37.81460384512769
78-Fitzwilliam St/Glenferrie Rd (Hawthorn),145.0372148651739,-37.81210283433499
78-Fitzwilliam St/Glenferrie Rd (Hawthorn),145.03746794520552,-37.812007884356774
79-Wellington St/Glenferrie Rd (Hawthorn),145.03764398844004,-37.810073873708106
79-Wellington St/Glenferrie Rd (Hawthorn),145.03782974858655,-37.809887843674716
80-Cotham Rd/Glenferrie Rd (Kew),145.0381209915495,-37.80790982300556
80-Cotham Rd/Glenferrie Rd (Kew),145.0381328715782,-37.80788282299736
37-Chapel St/Carlisle St (St Kilda),144.9904998684358,-37.86843184580716
38-Balaclava Station/Carlisle St (Balaclava),144.9938190657771,-37.86884881586069
39-Carlisle Ave/Carlisle St (St Kilda),144.99674190252986,-37.86923185628783
40-Hotham St/Balaclava Rd (St Kilda East),144.99963089809745,-37.86959680690874
41-Vadlure Ave/Balaclava Rd (St Kilda East),145.00258793313168,-37.86997084752114
52-Hoffmans Rd/Keilor Rd (Essendon),144.89255290940437,-37.73746382980707
37-Buckley St/Pascoe Vale Rd (Essendon),144.9264670425228,-37.75791885274905
25-St James Park/Burwood Rd (Hawthorn),145.02103287688746,-37.820870807437856
25-St James Park/Burwood Rd (Hawthorn),145.0211210767554,-37.82094487746407
26-Hawthorn Railway Station/Burwood Rd (Hawthorn),145.02482294901006,-37.8214398793677
26-Hawthorn Railway Station/Burwood Rd (Hawthorn),145.0245889493165,-37.82127382930119
27-Burwood Rd/Power St (Hawthorn),145.02628095050923,-37.821733819843125
27-Power St/Burwood Rd (Hawthorn),145.0262877900856,-37.82145481994937
28-Wattle Rd/Power St (Hawthorn),145.02587091448774,-37.82476483853943
28-Wattle Rd/Power St (Hawthorn),145.02571899441625,-37.82489686842339
44-Burke Rd/Doncaster Rd (Balwyn North),145.06427104261553,-37.79345483143907
0-Bourke St/Spring St (Melbourne City),144.97325191624222,-37.8116508412438
38-Normanby Ave/High St (Thornbury),145.0003267729906,-37.759637857461485
D1-Stadium Precinct/La Trobe St (Docklands),144.9467508694195,-37.814552799682225
42-Allan Rd/Balaclava Rd (Caulfield North),145.00559104762746,-37.870328868112445
43-Orrong Rd/Balaclava Rd (Caulfield North),145.00879684128697,-37.87073485872461
44-Otira Rd/Balaclava Rd (Caulfield North),145.01238892179927,-37.87116487910028
45-Kent Gr/Balaclava Rd (Caulfield North),145.015106925486,-37.87154386927418
46-Kooyong Rd/Balaclava Rd (Caulfield North),145.0179628095778,-37.871880829427916
41-Burke Rd/Camberwell Rd (Camberwell),145.05772877711934,-37.83207086475461
42-Camberwell Primary School/Camberwell Rd (Camberwell),145.05887393544046,-37.83303584422015
42-Camberwell Primary School/Camberwell Rd (Camberwell),145.0589347753185,-37.833325824167424
43-Camberwell Civic Centre/Camberwell Rd (Camberwell),145.0606408129099,-37.834552883431996
43-Camberwell Civic Centre/Camberwell Rd (Camberwell),145.06066889284497,-37.83479588340046
44-Trafalgar Rd/Camberwell Rd (Camberwell),145.06216181078898,-37.83591089278822
44-Trafalgar Rd/Camberwell Rd (Camberwell),145.06252397027777,-37.8364038226282
45-Bowen St/Camberwell Rd (Camberwell),145.06420588803604,-37.837692891983984
45-Bowen St/Camberwell Rd (Camberwell),145.0642008480291,-37.837899891973855
46-Christowel St/Camberwell Rd (Camberwell),145.06608184560042,-37.83939083130104
46-Acheron Ave/Camberwell Rd (Camberwell),145.06631008530354,-37.83980087121414
47-Maple Cres/Camberwell Rd (Camberwell),145.06764784363833,-37.84079582077512
47-Orange Gr/Camberwell Rd (Camberwell),145.06782100342306,-37.841140880714775
48-Orrong Cres/Camberwell Rd (Camberwell),145.06912492184617,-37.84210883031548
48-Glen Iris Rd/Camberwell Rd (Camberwell),145.0691648817999,-37.842325820301305
49-Tyrone St/Camberwell Rd (Camberwell),145.07143575894153,-37.84412888100979
49-Wilson Gr/Camberwell Rd (Camberwell),145.07153079878213,-37.84441886107206
50-Fordham Gardens/Camberwell Rd (Camberwell),145.07341287731305,-37.8459008925743
50-Smith Rd/Camberwell Rd (Camberwell),145.07320875758833,-37.84589783244399
51-Toorak Rd/Camberwell Rd (Camberwell),145.07562399700836,-37.84782986432733
52-Summerhill Rd/Toorak Rd (Camberwell),145.07708091562154,-37.84818689518717
52-Summerhill Rd/Toorak Rd (Camberwell),145.07741787541738,-37.848345835388855
53-Highfield Rd/Toorak Rd (Camberwell),145.08181779033555,-37.84872383774043
53-Lithgow St/Toorak Rd (Camberwell),145.082301990005,-37.84890284798073
54-Oberwyl Rd/Toorak Rd (Camberwell),145.08431006765065,-37.8490258790016
54-Grandview Ave/Toorak Rd (Camberwell),145.0846020275463,-37.849183829125124
55-Through Rd/Toorak Rd (Camberwell),145.08672386709387,-37.84930784968032
55-Beryl St/Toorak Rd (Camberwell),145.0872638673709,-37.849505849770786
56-Barkly St/Toorak Rd (Camberwell),145.08960206736725,-37.84964283027617
56-Alfred Rd/Toorak Rd (Camberwell),145.09006286763025,-37.849839840364204
57-Fairview Ave/Toorak Rd (Camberwell),145.09236686758473,-37.84996782088609
57-Queens Pde/Toorak Rd (Camberwell),145.09273694780902,-37.850144850967645
58-Warrigal Rd/Burwood Hwy (Camberwell),145.0954718677447,-37.85031486161484
58-Warrigal Rd/Burwood Hwy (Burwood),145.09584374784902,-37.850419891707816
59-Somers St/Burwood Hwy (Burwood),145.09898474782702,-37.85068683249096
59-Gilmour St/Burwood Hwy (Burwood),145.09874606791286,-37.850728862436625
60-Roslyn St/Burwood Hwy (Burwood),145.10209478636153,-37.85043087234289
60-Millicent St/Burwood Hwy (Burwood),145.1021610264004,-37.85049486233829
61-Presbyterian Ladies College/Burwood Hwy (Burwood),145.10548202433748,-37.84995387171151
61-Presbyterian Ladies College/Burwood Hwy (Burwood),145.10572106424246,-37.84996683167166
62-Elgar Rd/Burwood Hwy (Burwood),145.10870978266132,-37.8494919011366
62-Elgar Rd/Burwood Hwy (Burwood),145.10844698281582,-37.84957785118496
63-Deakin University/Burwood Hwy (Burwood),145.11524378034974,-37.84997583014708
63-Deakin University/Burwood Hwy (Burwood),145.11541298049806,-37.85006790019162
64-Station St/Burwood Hwy (Burwood),145.11940106383707,-37.85053788125397
64-Station St/Burwood Hwy (Burwood),145.12059302481168,-37.850592871572324
65-Starling St/Burwood Hwy (Burwood),145.12598690867662,-37.85124690301708
65-Starling St/Burwood Hwy (Burwood),145.126324948834,-37.85135085310828
66-Middleborough Rd/Burwood Hwy (Burwood),145.13184302947488,-37.85200686433855
66-Middleborough Rd/Burwood Hwy (Burwood),145.1332178684977,-37.852009834516
67-Old Burwood Rd/Burwood Hwy (Burwood East),145.13814194534336,-37.851465875146495
67-Old Burwood Rd/Burwood Hwy (Burwood East),145.13830106522113,-37.851468845167076
68-Benwerrin Reserve/Burwood Hwy (Burwood East),145.141885942562,-37.85127282562831
68-Benwerrin Reserve/Burwood Hwy (Burwood East),145.14204290241608,-37.85136588564937
69-Keats St/Burwood Hwy (Burwood East),145.14624806094298,-37.85183784573367
69-Highview Gr/Burwood Hwy (Burwood East),145.14634778099736,-37.85192883570779
70-Blackburn Rd/Burwood Hwy (Burwood East),145.15112786371145,-37.85256288446703
70-Blackburn Rd/Burwood Hwy (Burwood East),145.15285298464076,-37.85268087400642
71-Sevenoaks Rd/Burwood Hwy (Burwood East),145.15854674689365,-37.85360787229444
71-Sevenoaks Rd/Burwood Hwy (Burwood East),145.15899098714712,-37.85357889217882
72-Lakeside Dr/Burwood Hwy (Burwood East),145.16464298458223,-37.85435190121087
72-Lakeside Dr/Burwood Hwy (Burwood East),145.1660739838857,-37.85440086105767
73-Springvale Rd/Burwood Hwy (Burwood East),145.16820194272205,-37.85474988079892
73-Springvale Rd/Burwood Hwy (Vermont South),145.17016394181124,-37.85492484059839
74-Stanley Rd/Burwood Hwy (Vermont South),145.1749800198121,-37.855530900159415
74-Stanley Rd/Burwood Hwy (Vermont South),145.17460381995,-37.855542870189176
75-Vermont South Shopping Centre/Burwood Hwy (Vermont South),145.1819359468404,-37.856431888814186
36-Rogers St/Sydney Rd (Coburg),144.96606198748694,-37.7358268250865
51-Bradshaw St/Keilor Rd (Essendon),144.89583502139942,-37.738585859969376
1-Spencer St/Flinders St (Melbourne City),144.95585887275456,-37.820820850415245
1-Spencer St/Flinders St (Melbourne City),144.95538691161954,-37.82103784040091
2-Melbourne Aquarium/Flinders St (Melbourne City),144.95782699743205,-37.820296870481336
2-Melbourne Aquarium/Flinders St (Melbourne City),144.95821903845993,-37.82009581048546
29-Moore St/Sydney Rd (Coburg),144.96442109932258,-37.75348887587645
20-Barkly Square/Sydney Rd (Brunswick),144.96093488388087,-37.77464283631684
35-Carlisle St/St Kilda Rd (St Kilda),144.98664211140087,-37.86731188572096
40-Camberwell Junction/Camberwell Rd (Camberwell),145.05693497827153,-37.83158081511489
21-Church St/Victoria St (Richmond),145.0008030596298,-37.810634834742395
15-Smith St/Victoria Pde (Fitzroy),144.98291394664514,-37.80890584350484
131-St Kilda Rd/Fitzroy St (St Kilda),144.9822069160475,-37.85695288452347
131-St Kilda Rd/Fitzroy St (St Kilda),144.98233687589627,-37.85678386444949
132-Princes St/Fitzroy St (St Kilda),144.98057899904634,-37.85791687513951
132-Princes St/Fitzroy St (St Kilda),144.9801999198646,-37.85803585525703
7-Exhibition St/Collins St (Melbourne City),144.97071788431055,-37.81420180085029
7-Exhibition St/Collins St (Melbourne City),144.97051988503705,-37.81436983082785
52-Treadwell Rd/Keilor Rd (Niddrie),144.8923559896611,-37.737217859774624
49-Tooronga Rd/Wattletree Rd (Malvern East),145.04028390364803,-37.86397181116654
48-Wests Rd/Cordite Ave (Maribyrnong),144.882431129749,-37.769301871074866
22-Scotchmer St/St Georges Rd (Fitzroy North),144.98403284292812,-37.78320480884359
23-Hawthorn Bridge/Bridge Rd (Hawthorn),145.01637700706127,-37.81993687501553
23-Hawthorn Bridge/Bridge Rd (Hawthorn),145.0162268874463,-37.8200058149117
116-City Rd/Kings Way (Southbank),144.96080887812656,-37.82628682118339
7A-William Barak Bridge/Melbourne Park (Melbourne City),144.9762100324274,-37.818153881708646
7A-William Barak Bridge/Melbourne Park (Melbourne City),144.97583095333817,-37.81830985167484
39-Mercy College/Sydney Rd (Coburg North),144.96375907284946,-37.7304258335094
41-Armadale St/Wattletree Rd (Armadale),145.01780188074596,-37.86092881735747
128-Dorcas St/Clarendon St (South Melbourne),144.9605410396978,-37.83313987148043
129-Park St/Clarendon St (South Melbourne),144.9615908046819,-37.83542083160419
42-Kooyong Rd/Wattletree Rd (Armadale),145.01962492110215,-37.861175867611074
63-Maroona Rd/Glenhuntly Rd (Carnegie),145.0472610311656,-37.88992484008093
64-Mernda Ave/Glenhuntly Rd (Carnegie),145.0494930346815,-37.890223820093375
65-Mimosa Rd/Glenhuntly Rd (Carnegie),145.05175995845875,-37.89050381013031
66-Truganini Rd/Glenhuntly Rd (Carnegie),145.05407188227915,-37.890767870178216
67-Centre Rd/Truganini Rd (Carnegie),145.05450100544422,-37.892640860467935
64-Baker St/Church St (Richmond),145.00043010016304,-37.81224088475512
63-Kent St/Church St (Richmond),145.00004490034675,-37.81431682476324
62-Highett St/Church St (Richmond),144.9997788609007,-37.815735854641645
61-Bridge Rd/Church St (Richmond),144.9992979031992,-37.81841281416069
60-Abinger St/Church St (Richmond),144.99896310498593,-37.82030884380279
59-St Ignatius Church/Church St (Richmond),144.9987201064065,-37.8217288635246
58-Gipps St/Church St (Richmond),144.9983601085237,-37.82371381312793
57-Swan St/Church St (Richmond),144.99803791059207,-37.82553784274903
56-East Richmond Railway Station/Church St (Richmond),144.99784891187952,-37.82662486251702
55-Gibbons St/Church St (Richmond),144.99746191454355,-37.82875480205271
54-Balmain St/Church St (Richmond),144.99697303705423,-37.83045886189187
53-Howard St/Church St (Richmond),144.99661412038438,-37.83281380232196
51-Malcolm St/Chapel St (South Yarra),144.99604784645916,-37.83693085300207
50-Toorak Rd/Chapel St (South Yarra),144.9957900900457,-37.83933286336339
49-Arthur St/Chapel St (South Yarra),144.99497901532027,-37.84201387369656
48-Wilson St/Chapel St (South Yarra),144.99490089741707,-37.843625863894864
47-Malvern Rd/Chapel St (South Yarra),144.99426081198024,-37.84668784373153
46-Chatham St/Chapel St (Prahran),144.99392708340557,-37.848934873461516
45-High St/Chapel St (Prahran),144.9935001133743,-37.85171182320064
44-Duke St/Chapel St (Prahran),144.99305190577817,-37.85397586305463
43-Windsor Railway Station/Chapel St (Prahran),144.99265301906678,-37.8561138129797
42-Dandenong Rd/Chapel St (Prahran),144.99242477520463,-37.857406842961495
41-St Michaels Grammar School/Chapel St (St Kilda East),144.99208708963576,-37.859365872971786
40-Alma Rd/Chapel St (St Kilda East),144.99173789160218,-37.86136081349012
39-Argyle St/Chapel St (St Kilda East),144.99140093656388,-37.8633108441754
38-Inkerman St/Chapel St (St Kilda East),144.99104310116456,-37.86518788480561
36-St Kilda Town Hall/Carlisle St (St Kilda),144.98876611002953,-37.86821287580853
37-Carlisle St/Chapel St (St Kilda),144.9904829479971,-37.86819685573991
35-Brighton Rd/Carlisle St (St Kilda),144.98767891109082,-37.86806788581817
34-Mitchell St/Carlisle St (St Kilda),144.98397487515652,-37.86758080591551
36-Canterbury Rd/Malvern Rd (Toorak),145.00932677621887,-37.84893487598499
35-Lorne Rd/Malvern Rd (Toorak),145.00649502233682,-37.848580815521736
34-Williams Rd/Malvern Rd (Toorak),145.00341486944308,-37.84817680503973
33-Hobson St/Malvern Rd (South Yarra),145.00116091496193,-37.84786783470246
32-Bendigo St/Malvern Rd (Prahran),144.99804800300583,-37.84743682425817
31-Chapel St/Malvern Rd (Prahran),144.99422085106792,-37.84692085369997
30-Prahran Market/Commercial Rd (Prahran),144.99243093036551,-37.8466928833436
29-Porter St/Commercial Rd (Prahran),144.99071984941534,-37.84650082297656
28-Braille Library/Commercial Rd (Prahran),144.98756192736695,-37.8460598222263
27-Punt Rd/Commercial Rd (Prahran),144.98516108526442,-37.845756881597126
26-Alfred Hospital/Commercial Rd (Prahran),144.98231888229648,-37.845347830769526
33-Barkly St/Carlisle St (St Kilda),144.98139295839138,-37.86723988604073
32-Havelock St/Carlisle St (St Kilda),144.9785910763703,-37.86702883569703
13-Curzon St/Queensberry St (North Melbourne),144.94795005304002,-37.80281284001121
12-North Melbourne Town Hall/Queensberry St (North Melbourne),144.94941093187134,-37.80297385004501
14-Royal Melbourne Hospital/Flemington Rd (Parkville),144.95489192715306,-37.799464839439054
16-Harker St/Flemington Rd (Parkville),144.95105794128497,-37.79640582995375
19-Royal Childrens Hospital/Flemington Rd (North Melbourne),144.9483691073288,-37.79426887006259
22-Flemington Bridge Station/Flemington Rd (North Melbourne),144.9409379957183,-37.788262810031796
23-Flemington Community Centre/Mt Alexander Rd (Flemington),144.93906095900275,-37.78591381000841
24-Mooltan St/Mt Alexander Rd (Flemington),144.93700499766592,-37.783922829593976
25-Mount Alexander College/Mt Alexander Rd (Flemington),144.9339471510979,-37.782426848406224
26-Wellington St/Mt Alexander Rd (Flemington),144.93263206521254,-37.781106817316484
27-Essendon Tram Depot/Mt Alexander Rd (Ascot Vale),144.93122589912707,-37.77942381625624
28-Middle St/Mt Alexander Rd (Ascot Vale),144.9298388134765,-37.777443815358005
29-Warrick St/Mt Alexander Rd (Ascot Vale),144.92854100906246,-37.7755287947251
30-Ormond Rd/Mt Alexander Rd (Moonee Ponds),144.92691380407894,-37.77241785420783
31-Montgomery St/Mt Alexander Rd (Moonee Ponds),144.9262388020402,-37.770585814116984
32-Moonee Ponds Junction/Pascoe Vale Rd (Moonee Ponds),144.92492192273767,-37.76692182384375
34-Moonee Valley Civic Centre/Pascoe Vale Rd (Moonee Ponds),144.9254608430382,-37.764299853570584
35-Queens Park/Pascoe Vale Rd (Moonee Ponds),144.92581688299845,-37.76251281335519
36-Salisbury St/Pascoe Vale Rd (Moonee Ponds),144.92629208267553,-37.75972686298609
38-Pascoe Vale Rd/Fletcher St (Essendon),144.92582300431465,-37.75579881267678
39-Hoddle St/Fletcher St (Essendon),144.9227680521064,-37.755456813457
40-Nicholson St/Fletcher St (Essendon),144.9202109788994,-37.75515882414059
41-Fletcher St/Napier St (Essendon),144.9176070928439,-37.754914833844886
8-Richmond Station/Swan St (Richmond),144.98906311244002,-37.82466385296704
9-Lennox St/Swan St (Richmond),144.9934900327593,-37.82522680324673
10-Swan Street Shopping Centre/Swan St (Richmond),144.99606079214746,-37.82551381310759
11-Church St/Swan St (Richmond),144.99809983075542,-37.82574682268746
12-Coppin St/Swan St (Richmond),145.00258578734113,-37.82624587179992
13-Edinburgh St/Swan St (Burnley),145.00490778538924,-37.826492831360405
14-Burnley St/Swan St (Burnley),145.00736586319587,-37.82677786090439
15-Stawell St/Swan St (Burnley),145.00979010089594,-37.82703481047162
16-Park Gr/Swan St (Burnley),145.01178377775668,-37.827248831214206
17-Madden Gr/Swan St (Burnley),145.0165170501595,-37.82745484330438
18-Yarra Bvd/Swan St (Burnley),145.0195597646627,-37.826649884904626
29-Power St/Riversdale Rd (Hawthorn),145.0254489974161,-37.827379877349586
30-Through St/Riversdale Rd (Hawthorn),145.02907384703295,-37.828197888807246
31-Fordholm Rd/Riversdale Rd (Hawthorn),145.0316338137531,-37.82849281997543
32-Glenferrie Rd/Riversdale Rd (Hawthorn),145.03447710155683,-37.828828881299806
33-Berkeley St/Riversdale Rd (Hawthorn),145.03726386949134,-37.82914586263057
125-Port Junction/79 Whiteman St (Southbank),144.95621383063565,-37.82606281071356
22-Dorcas St/Eastern Rd (South Melbourne),144.96519188296776,-37.83215788206463
23-Moray St/Park St (South Melbourne),144.96435488573604,-37.83449482196509
24-Clarendon St/Park St (South Melbourne),144.96195008464514,-37.8352098716514
25-Cecil St/Park St (South Melbourne),144.95857184338698,-37.836124811215456
26-Ferrars St/Park St (South Melbourne),144.95697884310792,-37.83662881101138
27-Montague St/Park St (South Melbourne),144.95447180268064,-37.83731587069269
28-Bridport St/Montague St (Albert Park),144.95572713025658,-37.84040980084853
29-Bridport St/Victoria Ave (Albert Park),144.95337309212746,-37.84171183055717
30-Richardson St/Victoria Ave (Albert Park),144.9516908165393,-37.84377382035418
31-Graham St/Victoria Ave (Albert Park),144.95002185810466,-37.84575382028184
124-Walsh St/Toorak Rd (South Yarra),144.98454188301974,-37.83801481165125
125-Punt Rd/Toorak Rd (South Yarra),144.98627492425402,-37.83819688189674
126-Myrtle St/Toorak Rd (South Yarra),144.98935508667202,-37.838610882364506
127-South Yarra Railway Station/Toorak Rd (South Yarra),144.9920950490234,-37.83897286281939
128-Chapel St/Toorak Rd (South Yarra),144.99543693082958,-37.839362833356766
129-Tivoli Rd/Toorak Rd (South Yarra),144.99849404479147,-37.83975784353043
130-Hawksburn Rd/Toorak Rd (South Yarra),145.00199395759947,-37.84019587377752
131-Williams Rd/Toorak Rd (South Yarra),145.00458811207955,-37.84050088398936
132-Toorak Village/Toorak Rd (Toorak),145.00834794382573,-37.84095187434876
133-Grange Rd/Toorak Rd (Toorak),145.01059109988122,-37.841214854783445
134-Orrong Rd/Toorak Rd (Toorak),145.0137400188949,-37.84160185618329
135-Woorigoleen Rd/Toorak Rd (Toorak),145.0175470179615,-37.842026837856935
136-Irving Rd/Toorak Rd (Toorak),145.01996009752207,-37.842300888918636
137-Kooyong Rd/Toorak Rd (Toorak),145.02282497720614,-37.842673850196746
138-Moonga Rd/Toorak Rd (Toorak),145.02669893397842,-37.84315382116409
139-Glenferrie Rd/Toorak Rd (Toorak),145.02999400721598,-37.84360481108499
112-Lygon St/Elgin St (Carlton),144.96636078168268,-37.79701386890124
113-Lytton St/Lygon St (Carlton),144.96813306369955,-37.794124869492265
114-Princes St/Lygon St (Carlton North),144.96847182415894,-37.79211183958577
115-Melbourne Cemetery/Lygon St (Carlton North),144.96895782482738,-37.78927179963876
116-Fenwick St/Lygon St (Carlton North),144.96931098532266,-37.78718784961786
117-Richardson St/Lygon St (Carlton North),144.9698279469339,-37.78406979918954
118-Pigdon St/Lygon St (Carlton North),144.97023798982718,-37.7815258582243
119-Park St/Lygon St (Carlton North),144.9704989916124,-37.779872827606745
120-Brunswick Rd/Lygon St (Brunswick),144.97078591345132,-37.77810180695257
121-Weston St/Lygon St (Brunswick East),144.97112791593926,-37.77553986602404
122-Glenlyon Rd/Lygon St (Brunswick East),144.9716200387143,-37.77250182494038
123-Albert St/Lygon St (Brunswick East),144.97211792033238,-37.769635864110185
124-Victoria St/Lygon St (Brunswick East),144.97242211812855,-37.76806383432548
125-Blyth St/Lygon St (Brunswick East),144.97272811584546,-37.76642880454905
126-Stewart St/Lygon St (Brunswick East),144.97309279286188,-37.76428185484201
127-Albion St/Holmes St (Brunswick East),144.9740669495146,-37.76187381517169
128-Mitchell St/Holmes St (Brunswick East),144.97452486591683,-37.75925085552789
129-Moreland Rd/Nicholson St (Coburg),144.9749849422025,-37.75652781589689
129-Moreland Rd/Holmes St (Brunswick),144.97463178223813,-37.75655787589236
130-Barrow St/Moreland Rd (Coburg),144.96998094144752,-37.756044875956405
131-De Carle St/Moreland Rd (Coburg),144.966360060811,-37.75564986600667
132-Sydney Rd/Moreland Rd (Coburg),144.963859858795,-37.75532685560983
133-Moreland Station/Cameron St (Coburg),144.96212501640127,-37.755278794945326
130-The Avenue/Nicholson St (Coburg),144.97619490175103,-37.753358825948084
131-Rennie St/Nicholson St (Coburg),144.97668486404947,-37.75120386572183
132-Crozier St/Nicholson St (Coburg),144.97699590607704,-37.749379835520166
133-Harding St/Nicholson St (Coburg),144.97752906999014,-37.74604587512695
134-Merribell Ave/Nicholson St (Coburg),144.97789303216138,-37.74435783490579
135-Bell St/Nicholson St (Coburg),144.9781378341062,-37.74284781470732
125A-Southbank Tram Depot/Light Rail (South Melbourne),144.9539940664451,-37.827439810543424
126-Montague St/Light Rail (South Melbourne),144.94847490085863,-37.83022683990056
127-North Port Station/Light Rail (Port Melbourne),144.94349610284732,-37.833194859419386
128-Graham St/Light Rail (Port Melbourne),144.93719609403024,-37.83704082919028
13-Lansdowne St/Victoria Pde (Fitzroy),144.97834986867008,-37.808421822530875
42-Grice Cres/Mt Alexander Rd (Essendon),144.91589996690522,-37.75264980307013
16-Wellington St/Victoria Pde (Collingwood),144.9861420665272,-37.80925783417655
18-Hoddle St/Victoria Pde (Collingwood),144.99064998630996,-37.80971386515039
19-North Richmond Railway Station/Victoria St (Abbotsford),144.99296802653384,-37.8096808356682
20-Lennox St/Victoria St (Abbotsford),144.99576594536512,-37.809980805948584
21-Church St/Victoria St (Abbotsford),145.0005229798825,-37.81047688481733
22-McKay St/Victoria St (Richmond),145.00404701666986,-37.810815823949504
23-Flockhart St/Victoria St (Abbotsford),145.00687877460905,-37.81109788323271
24-Burnley St/Victoria St (Richmond),145.0103909324488,-37.81142782265427
25-River Bvd/Victoria St (Richmond),145.0132450093788,-37.81175488437018
27-Findon Cres/Barkers Rd (Kew),145.02062607725705,-37.81269988896347
29-High St/Barkers Rd (Kew),145.0231849516031,-37.81301282061184
31-Stevenson St/High St (Kew),145.02616683826136,-37.81021481166866
32-Kew Junction/High St (Kew),145.02858892502033,-37.80757889162876
33-Kew Shopping Centre/High St (Kew),145.03051780475292,-37.80680084171242
34-QPO/Cotham Rd (Kew),145.03166296283234,-37.80687383186395
35-Charles St/Cotham Rd (Kew),145.03530903651497,-37.807294852426224
36-Glenferrie Rd/Cotham Rd (Kew),145.0379129123229,-37.80760886286841
37-Belmont Ave/Cotham Rd (Kew),145.04231894914193,-37.808105843490495
38-Marshall Ave/Cotham Rd (Kew),145.0458408294697,-37.808515883855996
39-Florence Ave/Cotham Rd (Kew),145.0492827902796,-37.808923854190816
40-St George's Hospital/Cotham Rd (Kew),145.0529169916748,-37.80936287451975
